{"address": {"apiKey": null, "streetAddress": null, "latitude": 40.5516, "longitude": -74.4637, "city": null, "state": null, "zip": null, "aptNumber": null}, "restaurants": [{"apiKey": "1b3e7d280d7bcddd144247b91fbcb2f35edd2dc06aa6ef84", "deliveryMin": 15.0, "logoUrl": "https://eatstreet-static.s3.amazonaws.com/assets/images/restaurant_logos/25-burgers-27078_1424101627354.png", "name": "25 Burgers", "streetAddress": "4 Easton Ave", "city": "New Brunswick", "state": "NJ", "zip": "08901", "foodTypes": ["Burgers", "Pizza", "Food Court", "Chicken Wings"], "phone": "(732) 640-2600", "latitude": 40.496654, "longitude": -74.447015, "minFreeDelivery": 0.0, "taxRate": 0.0688, "acceptsCash": true, "acceptsCard": true, "offersPickup": true, "offersDelivery": true, "isTestRestaurant": false, "minWaitTime": 35, "maxWaitTime": 50, "open": true, "url": "https://eatstreet.com/new-brunswick-nj/restaurants/25-burgers-new-brunswick", "hours": {"Monday": ["11:00 AM - 2:00 AM"], "Saturday": ["11:00 AM - 2:00 AM"], "Sunday": ["11:00 AM - 2:00 AM"], "Wednesday": ["11:00 AM - 2:00 AM"], "Tuesday": ["11:00 AM - 2:00 AM"], "Friday": ["11:00 AM - 2:00 AM"], "Thursday": ["11:00 AM - 2:00 AM"]}, "timezone": "US/Eastern"}, {"apiKey": "1b3e7d280d7bcddd144247b91fbcb2f3c5b23b172c746df1", "deliveryMin": 15.0, "logoUrl": "https://eatstreet-static.s3.amazonaws.com/assets/images/restaurant_logos/25-pizzas-27077_1424101391155.png", "name": "25 Pizzas", "streetAddress": "4 Easton Ave", "city": "New Brunswick", "state": "NJ", "zip": "08901", "foodTypes": ["Pizza", "Burgers", "Chicken Wings"], "phone": "(732) 640-2600", "latitude": 40.4966543, "longitude": -74.44701479999999, "minFreeDelivery": 0.0, "taxRate": 0.0688, "acceptsCash": true, "acceptsCard": true, "offersPickup": true, "offersDelivery": true, "isTestRestaurant": false, "minWaitTime": 45, "maxWaitTime": 60, "open": true, "url": "https://eatstreet.com/new-brunswick-nj/restaurants/25-pizzas", "hours": {"Monday": ["11:00 AM - 2:00 AM"], "Saturday": ["11:00 AM - 2:00 AM"], "Sunday": ["11:00 AM - 2:00 AM"], "Wednesday": ["11:00 AM - 2:00 AM"], "Tuesday": ["11:00 AM - 2:00 AM"], "Friday": ["11:00 AM - 2:00 AM"], "Thursday": ["11:00 AM - 2:00 AM"]}, "timezone": "US/Eastern"}, {"apiKey": "1b3e7d280d7bcdddf15b4f2e73e76180e22fc999a04c787d", "deliveryMin": 15.0, "deliveryPrice": 2.0, "logoUrl": "https://eatstreet-static.s3.amazonaws.com/assets/images/restaurant_logos/alfredos-pizza-and-pasta-37438_1469536827421.png", "name": "Alfredo's Pizza & Pasta", "streetAddress": "1760 Easton Ave", "city": "Somerset", "state": "NJ", "zip": "08873", "foodTypes": ["Pizza", "Italian Food", "", "Italian"], "phone": "(732) 469-4422", "latitude": 40.534816, "longitude": -74.507053, "minFreeDelivery": 0.0, "taxRate": 0.0688, "acceptsCash": true, "acceptsCard": true, "offersPickup": true, "offersDelivery": true, "isTestRestaurant": false, "minWaitTime": 45, "maxWaitTime": 60, "open": false, "url": "https://eatstreet.com/new-brunswick-nj/restaurants/alfredos-pizza-and-pasta", "hours": {"Monday": ["10:00 AM - 9:15 PM"], "Saturday": ["10:00 AM - 10:15 PM"], "Sunday": ["12:00 PM - 9:15 PM"], "Wednesday": ["10:00 AM - 9:15 PM"], "Tuesday": ["10:00 AM - 9:15 PM"], "Friday": ["10:00 AM - 10:15 PM"], "Thursday": ["10:00 AM - 9:15 PM"]}, "timezone": "US/Eastern"}, {"apiKey": "1b3e7d280d7bcddd459c89af9c680205a0d7797106f1b253", "deliveryMin": 20.0, "logoUrl": "https://eatstreet-static.s3.amazonaws.com/assets/images/restaurant_logos/antojos-ticos-40043_1487352920761.png", "name": "Antojos Ticos", "streetAddress": "23 S Plainfield Ave", "city": "South Plainfield", "state": "NJ", "zip": "07080", "foodTypes": ["Costa Rican", "Latin American"], "phone": "(908) 755-5555", "latitude": 40.579204, "longitude": -74.411584, "minFreeDelivery": 0.0, "taxRate": 0.07, "acceptsCash": true, "acceptsCard": true, "offersPickup": true, "offersDelivery": true, "isTestRestaurant": false, "minWaitTime": 40, "maxWaitTime": 55, "open": false, "url": "https://eatstreet.com/new-brunswick-nj/restaurants/antojos-ticos", "hours": {"Saturday": ["10:00 AM - 8:00 PM"], "Sunday": ["11:00 AM - 8:30 PM"], "Wednesday": ["11:00 AM - 7:30 PM"], "Tuesday": ["11:00 AM - 7:30 PM"], "Friday": ["11:00 AM - 8:00 PM"], "Thursday": ["11:00 AM - 7:30 PM"]}, "timezone": "US/Eastern"}, {"apiKey": "1b3e7d280d7bcddd459c89af9c68020549fd9650afbee5ae", "deliveryMin": 25.0, "deliveryPrice": 1.99, "logoUrl": "https://eatstreet-static.s3.amazonaws.com/assets/images/restaurant_logos/bagel-one-and-deli-41658_1509989386093.png", "name": "Bagel One & Cafe", "streetAddress": "1905 Lincoln Highway", "city": "Edison", "state": "NJ", "zip": "08817", "foodTypes": ["Deli", "Sandwiches", "Breakfast", "Burgers", "Bagels", "Delis"], "phone": "(732) 317-1707", "latitude": 40.508746, "longitude": -74.390936, "minFreeDelivery": 0.0, "taxRate": 0.0688, "acceptsCash": true, "acceptsCard": true, "offersPickup": true, "offersDelivery": true, "isTestRestaurant": false, "minWaitTime": 45, "maxWaitTime": 60, "open": false, "url": "https://eatstreet.com/new-brunswick-nj/restaurants/bagel-one-and-deli", "hours": {"Monday": ["9:00 AM - 3:00 PM"], "Saturday": ["7:00 AM - 1:45 PM"], "Sunday": ["7:00 AM - 1:45 PM"], "Wednesday": ["9:00 AM - 3:00 PM"], "Tuesday": ["9:00 AM - 3:00 PM"], "Friday": ["9:00 AM - 3:00 PM"], "Thursday": ["9:00 AM - 3:00 PM"]}, "timezone": "US/Eastern"}, {"apiKey": "1b3e7d280d7bcdddf15b4f2e73e761804714f257778da151", "deliveryMin": 20.0, "logoUrl": "https://eatstreet-static.s3.amazonaws.com/assets/images/restaurant_logos/barca-city-cafe-and-bar-35795_1457395316749.png", "name": "Barca City Cafe & Bar", "streetAddress": "47 Easton Ave", "city": "New Brunswick", "state": "NJ", "zip": "08901", "foodTypes": ["Tapas", "Spanish", "Tapas Bars", "Desserts"], "phone": "(732) 640-1155", "latitude": 40.498104, "longitude": -74.448784, "minFreeDelivery": 0.0, "taxRate": 0.0688, "acceptsCash": true, "acceptsCard": true, "offersPickup": true, "offersDelivery": true, "isTestRestaurant": false, "minWaitTime": 45, "maxWaitTime": 60, "open": false, "url": "https://eatstreet.com/new-brunswick-nj/restaurants/barca-city-cafe-and-bar-new-brunswick", "hours": {"Monday": ["12:00 PM - 1:00 AM"], "Saturday": ["12:00 PM - 1:00 AM"], "Sunday": ["12:00 PM - 1:00 AM"], "Wednesday": ["12:00 PM - 1:00 AM"], "Tuesday": ["12:00 PM - 1:00 AM"], "Friday": ["12:00 PM - 1:00 AM"], "Thursday": ["12:00 PM - 1:00 AM"]}, "timezone": "US/Eastern"}, {"apiKey": "1b3e7d280d7bcdddf15b4f2e73e76180d8b8cb6fdd812f5d", "logoUrl": "https://eatstreet-static.s3.amazonaws.com/assets/images/restaurant_logos/boom-boom-chicken-35913_1458153160238.png", "name": "Boom Boom Chicken", "streetAddress": "1751 New Jersey 27", "city": "Edison", "state": "NJ", "zip": "08817", "foodTypes": ["Wings", "Korean Food", "Chicken", "Korean", "Chicken Wings"], "phone": "(732) 248-7885", "latitude": 40.513081, "longitude": -74.40823, "minFreeDelivery": 0.0, "taxRate": 0.0688, "acceptsCash": true, "acceptsCard": true, "offersPickup": true, "offersDelivery": false, "isTestRestaurant": false, "minWaitTime": 45, "maxWaitTime": 60, "open": false, "url": "https://eatstreet.com/new-brunswick-nj/restaurants/boom-boom-chicken", "hours": {"Monday": ["11:00 AM - 10:00 PM"], "Saturday": ["11:00 AM - 10:00 PM"], "Sunday": ["11:00 AM - 9:00 PM"], "Wednesday": ["11:00 AM - 10:00 PM"], "Tuesday": ["11:00 AM - 10:00 PM"], "Friday": ["11:00 AM - 10:00 PM"], "Thursday": ["11:00 AM - 10:00 PM"]}, "timezone": "US/Eastern"}, {"apiKey": "1b3e7d280d7bcdddf15b4f2e73e76180819e3d76bde87b1a", "deliveryMin": 15.0, "logoUrl": "https://eatstreet-static.s3.amazonaws.com/assets/images/restaurant_logos/brother-jimmys-bbq-35929_1458074925418.png", "name": "Brother Jimmy's BBQ", "streetAddress": "5 Easton Ave", "city": "New Brunswick", "state": "NJ", "zip": "08901", "foodTypes": ["Bar/Pub Food", "American Food", "BBQ", "American (New)", "Sports Bars", "Barbeque", "Southern", "Bars", "American (Traditional)"], "phone": "(732) 249-7427", "latitude": 40.496952, "longitude": -74.446767, "minFreeDelivery": 0.0, "taxRate": 0.0688, "acceptsCash": true, "acceptsCard": true, "offersPickup": true, "offersDelivery": true, "isTestRestaurant": false, "minWaitTime": 35, "maxWaitTime": 50, "open": false, "url": "https://eatstreet.com/new-brunswick-nj/restaurants/brother-jimmys-bbq-new-brunswick", "hours": {"Monday": ["12:00 PM - 10:00 PM"], "Saturday": ["12:00 PM - 12:00 AM"], "Sunday": ["12:00 PM - 10:00 PM"], "Wednesday": ["12:00 PM - 10:00 PM"], "Tuesday": ["12:00 PM - 10:00 PM"], "Friday": ["12:00 PM - 12:00 AM"], "Thursday": ["12:00 PM - 10:00 PM"]}, "timezone": "US/Eastern"}, {"apiKey": "1b3e7d280d7bcddd65357bbaef9033f4103c62915c4f7bbb", "deliveryMin": 10.0, "logoUrl": "https://eatstreet-static.s3.amazonaws.com/assets/images/restaurant_logos/brunswick-pizza-and-grill-9840_1472001743125.png", "name": "Brunswick Pizza & Grill", "streetAddress": "112 Church St.", "city": "New Brunswick", "state": "NJ", "zip": "08901", "foodTypes": ["Pizza", "Pasta", "Sandwich", "Salad", "Italian", "Cheesesteaks", "Chicken Wings", "Halal"], "phone": "(732) 246-4648", "latitude": 40.495719, "longitude": -74.444555, "minFreeDelivery": 0.0, "taxRate": 0.0688, "acceptsCash": true, "acceptsCard": true, "offersPickup": true, "offersDelivery": true, "isTestRestaurant": false, "minWaitTime": 45, "maxWaitTime": 60, "open": false, "url": "https://eatstreet.com/new-brunswick-nj/restaurants/brunswick-pizza-and-grill-new-brunswick", "hours": {"Monday": ["11:00 AM - 10:30 PM"], "Saturday": ["11:00 AM - 10:30 PM"], "Sunday": ["11:00 AM - 10:30 PM"], "Wednesday": ["11:00 AM - 10:30 PM"], "Tuesday": ["11:00 AM - 10:30 PM"], "Friday": ["11:00 AM - 10:30 PM"], "Thursday": ["11:00 AM - 10:30 PM"]}, "timezone": "US/Eastern"}, {"apiKey": "1b3e7d280d7bcdddf15b4f2e73e76180ec3ab79ba9929ffe", "deliveryMin": 8.5, "logoUrl": "https://eatstreet-static.s3.amazonaws.com/assets/images/restaurant_logos/bubbakoos-burritos-35930_1458075132670.png", "name": "Bubbakoo's Burritos", "streetAddress": "53 Easton Ave", "city": "New Brunswick", "state": "NJ", "zip": "08901", "foodTypes": ["Mexican", "Ethnic Food", "Imported Food"], "phone": "(732) 843-6000", "latitude": 40.498074, "longitude": -74.449219, "minFreeDelivery": 0.0, "taxRate": 0.0663, "acceptsCash": true, "acceptsCard": true, "offersPickup": true, "offersDelivery": true, "isTestRestaurant": false, "minWaitTime": 40, "maxWaitTime": 55, "open": false, "url": "https://eatstreet.com/new-brunswick-nj/restaurants/bubbakoos-burritos-new-brunswick", "hours": {"Monday": ["11:00 AM - 10:30 PM"], "Saturday": ["11:00 AM - 1:30 AM"], "Sunday": ["11:00 AM - 10:30 PM"], "Wednesday": ["11:00 AM - 10:30 PM"], "Tuesday": ["11:00 AM - 10:30 PM"], "Friday": ["11:00 AM - 1:30 AM"], "Thursday": ["11:00 AM - 1:30 AM"]}, "timezone": "US/Eastern"}, {"apiKey": "1b3e7d280d7bcdddf15b4f2e73e76180691df82fce4162d5", "deliveryMin": 15.0, "logoUrl": "https://eatstreet-static.s3.amazonaws.com/assets/images/restaurant_logos/campus-deli-and-food-store-39964_1487110762965.png", "name": "Campus Deli & Food Store", "streetAddress": "82 Senior Street", "city": "New Brunswick", "state": "NJ", "zip": "08901", "foodTypes": ["Sandwiches", "Delis", "Fast Food"], "phone": "(732) 828-4011", "latitude": 40.501896, "longitude": -74.45595, "minFreeDelivery": 0.0, "taxRate": 0.07, "acceptsCash": true, "acceptsCard": true, "offersPickup": true, "offersDelivery": true, "isTestRestaurant": false, "minWaitTime": 35, "maxWaitTime": 50, "open": true, "url": "https://eatstreet.com/new-brunswick-nj/restaurants/campus-deli-and-food-store", "hours": {"Monday": ["11:00 AM - 1:00 AM"], "Saturday": ["11:00 AM - 1:00 AM"], "Sunday": ["11:00 AM - 1:00 AM"], "Wednesday": ["11:00 AM - 1:00 AM"], "Tuesday": ["11:00 AM - 1:00 AM"], "Friday": ["11:00 AM - 1:00 AM"], "Thursday": ["11:00 AM - 1:00 AM"]}, "timezone": "US/Eastern"}, {"apiKey": "1b3e7d280d7bcdddf15b4f2e73e76180f4357210759abd44", "deliveryMin": 18.0, "logoUrl": "https://eatstreet-static.s3.amazonaws.com/assets/images/restaurant_logos/carlees-bbq-38949_1483477130485.png", "name": "Carlee's BBQ", "streetAddress": "110 Church St.", "city": "New Brunswick", "state": "NJ", "zip": "08901", "foodTypes": ["BBQ", "Portuguese", "Barbeque"], "phone": "(732) 543-2090", "latitude": 40.495715, "longitude": -74.444615, "minFreeDelivery": 0.0, "taxRate": 0.0663, "acceptsCash": true, "acceptsCard": true, "offersPickup": true, "offersDelivery": true, "isTestRestaurant": false, "minWaitTime": 35, "maxWaitTime": 50, "open": false, "url": "https://eatstreet.com/new-brunswick-nj/restaurants/carlees-bbq", "hours": {"Monday": ["11:00 AM - 7:30 PM"], "Wednesday": ["11:00 AM - 8:30 PM"], "Tuesday": ["11:00 AM - 7:30 PM"], "Friday": ["11:00 AM - 8:30 PM"], "Thursday": ["11:00 AM - 8:30 PM"]}, "timezone": "US/Eastern"}, {"apiKey": "1b3e7d280d7bcdddf15b4f2e73e76180ec869b9cf769f6be", "deliveryMin": 10.0, "logoUrl": "https://eatstreet-static.s3.amazonaws.com/assets/images/restaurant_logos/cheezen-37668_1470751108903.png", "name": "Cheezen", "streetAddress": "108 Easton Ave", "city": "New Brunswick", "state": "NJ", "zip": "08901", "foodTypes": ["Grilled Cheese", "Sandwiches"], "phone": "(732) 448-9370", "latitude": 40.498899, "longitude": -74.452008, "minFreeDelivery": 0.0, "taxRate": 0.0688, "acceptsCash": true, "acceptsCard": true, "offersPickup": true, "offersDelivery": true, "isTestRestaurant": false, "minWaitTime": 35, "maxWaitTime": 50, "open": false, "url": "https://eatstreet.com/new-brunswick-nj/restaurants/cheezen", "hours": {"Monday": ["11:00 AM - 7:15 PM"], "Saturday": ["11:00 AM - 7:15 PM"], "Sunday": ["11:00 AM - 7:15 PM"], "Wednesday": ["11:00 AM - 7:15 PM"], "Tuesday": ["11:00 AM - 7:15 PM"], "Friday": ["11:00 AM - 7:15 PM"], "Thursday": ["11:00 AM - 7:15 PM"]}, "timezone": "US/Eastern"}, {"apiKey": "1b3e7d280d7bcddd144247b91fbcb2f3698cbd07407f9509", "deliveryMin": 15.0, "logoUrl": "https://eatstreet-static.s3.amazonaws.com/assets/images/restaurant_logos/chengdu-1-21196_1407947349432.png", "name": "Chengdu 1", "streetAddress": "100 Rt. 22 West", "city": "Green Brook Township", "state": "NJ", "zip": "08812", "foodTypes": ["Chinese Food", "", "Szechuan"], "phone": "(732) 752-6888", "latitude": 40.605773, "longitude": -74.471517, "minFreeDelivery": 0.0, "taxRate": 0.0688, "acceptsCash": true, "acceptsCard": true, "offersPickup": true, "offersDelivery": true, "isTestRestaurant": false, "minWaitTime": 45, "maxWaitTime": 60, "open": false, "url": "https://eatstreet.com/paterson-nj/restaurants/chengdu-1", "hours": {"Monday": ["11:00 AM - 10:00 PM"], "Saturday": ["11:00 AM - 10:30 PM"], "Sunday": ["11:00 AM - 10:00 PM"], "Wednesday": ["11:00 AM - 10:00 PM"], "Tuesday": ["11:00 AM - 10:00 PM"], "Friday": ["11:00 AM - 10:30 PM"], "Thursday": ["11:00 AM - 10:00 PM"]}, "timezone": "US/Eastern"}, {"apiKey": "1b3e7d280d7bcdddf15b4f2e73e76180db4de54f7f41223e", "deliveryMin": 20.0, "logoUrl": "https://eatstreet-static.s3.amazonaws.com/assets/images/restaurant_logos/chengdu-1-palace-32148_1439463217626.png", "name": "Chengdu 1 Palace", "streetAddress": "100 U.S. 22", "city": "Dunellen", "state": "NJ", "zip": "08812", "foodTypes": ["Chinese Food", "Dim Sum", "Szechuan"], "phone": "(732) 752-6888", "latitude": 40.606052, "longitude": -74.471761, "minFreeDelivery": 0.0, "taxRate": 0.0688, "acceptsCash": true, "acceptsCard": true, "offersPickup": true, "offersDelivery": true, "isTestRestaurant": false, "minWaitTime": 45, "maxWaitTime": 60, "open": false, "url": "https://eatstreet.com/newark-nj/restaurants/chengdu-1-palace", "hours": {"Monday": ["11:00 AM - 10:00 PM"], "Saturday": ["10:30 AM - 10:30 PM"], "Sunday": ["10:30 AM - 10:00 PM"], "Wednesday": ["11:00 AM - 10:00 PM"], "Tuesday": ["11:00 AM - 10:00 PM"], "Friday": ["11:00 AM - 10:30 PM"], "Thursday": ["11:00 AM - 10:00 PM"]}, "timezone": "US/Eastern"}, {"apiKey": "1b3e7d280d7bcddd144247b91fbcb2f343a0f397707ddd20", "deliveryMin": 12.0, "logoUrl": "https://eatstreet-static.s3.amazonaws.com/assets/images/restaurant_logos/cookie-rush-25280_1415723913700.png", "name": "Cookie Rush", "streetAddress": "176 Easton St.", "city": "New Brunswick", "state": "NJ", "zip": "08901", "foodTypes": ["Dessert", "Bakery"], "phone": "(732) 253-7730", "latitude": 40.500087, "longitude": -74.454669, "minFreeDelivery": 0.0, "taxRate": 0.0688, "acceptsCash": true, "acceptsCard": true, "offersPickup": true, "offersDelivery": true, "isTestRestaurant": false, "minWaitTime": 40, "maxWaitTime": 55, "open": false, "url": "https://eatstreet.com/new-brunswick-nj/restaurants/cookie-rush-new-brunswick", "hours": {"Monday": ["1:00 PM - 12:00 AM"], "Saturday": ["3:00 PM - 2:00 AM"], "Sunday": ["3:00 PM - 12:00 AM"], "Wednesday": ["1:00 PM - 12:00 AM"], "Tuesday": ["1:00 PM - 12:00 AM"], "Friday": ["1:00 PM - 2:00 AM"], "Thursday": ["1:00 PM - 12:00 AM"]}, "timezone": "US/Eastern"}, {"apiKey": "1b3e7d280d7bcdddf15b4f2e73e76180a866f51696892eea", "deliveryMin": 10.0, "logoUrl": "https://eatstreet-static.s3.amazonaws.com/assets/images/restaurant_logos/cookies-n-crepes-35932_1458075180959.png", "name": "Cookies N Crepes", "streetAddress": "130 Easton Ave", "city": "New Brunswick", "state": "NJ", "zip": "08901", "foodTypes": ["Dessert", "Creperies", "Desserts"], "phone": "(732) 220-1001", "latitude": 40.499092, "longitude": -74.452687, "minFreeDelivery": 0.0, "taxRate": 0.0688, "acceptsCash": true, "acceptsCard": true, "offersPickup": true, "offersDelivery": true, "isTestRestaurant": false, "minWaitTime": 35, "maxWaitTime": 50, "open": true, "url": "https://eatstreet.com/new-brunswick-nj/restaurants/cookies-n-crepes-new-brunswick", "hours": {"Monday": ["2:30 PM - 1:20 AM"], "Saturday": ["2:30 PM - 1:20 AM"], "Sunday": ["2:30 PM - 1:20 AM"], "Wednesday": ["2:30 PM - 1:20 AM"], "Tuesday": ["2:30 PM - 1:20 AM"], "Friday": ["3:30 PM - 1:20 AM"], "Thursday": ["2:30 PM - 1:20 AM"]}, "timezone": "US/Eastern"}, {"apiKey": "1b3e7d280d7bcddd459c89af9c68020518b7f923dd5a874a", "deliveryMin": 15.0, "logoUrl": "https://eatstreet-static.s3.amazonaws.com/assets/images/restaurant_logos/dashen-ethiopian-cui-42065_1516702761143.png", "name": "Dashen Ethiopian Cuisine", "streetAddress": "88 Albany Street", "city": "New Brunswick", "state": "NJ", "zip": "08901", "foodTypes": ["Ethiopian"], "phone": "(732) 249-0494", "latitude": 40.496585, "longitude": -74.443007, "minFreeDelivery": 0.0, "taxRate": 0.0688, "acceptsCash": true, "acceptsCard": true, "offersPickup": true, "offersDelivery": true, "isTestRestaurant": false, "minWaitTime": 45, "maxWaitTime": 60, "open": false, "url": "https://eatstreet.com/new-brunswick-nj/restaurants/dashen-ethiopian-cuisine", "hours": {"Saturday": ["11:00 AM - 10:30 PM"], "Sunday": ["12:00 PM - 8:00 PM"], "Wednesday": ["11:00 AM - 10:00 PM"], "Tuesday": ["11:00 AM - 10:00 PM"], "Friday": ["11:00 AM - 10:30 PM"], "Thursday": ["11:00 AM - 10:00 PM"]}, "timezone": "US/Eastern"}, {"apiKey": "1b3e7d280d7bcddd144247b91fbcb2f3740db85d17a0bcf8", "deliveryMin": 12.0, "logoUrl": "https://eatstreet-static.s3.amazonaws.com/assets/images/restaurant_logos/diesel-and-duke-24498_1428007813792.png", "name": "Diesel & Duke", "streetAddress": "139 Easton Ave", "city": "New Brunswick", "state": "NJ", "zip": "08901", "foodTypes": ["Burgers", "American Food", "Hot Dogs"], "phone": "(732) 246-1001", "latitude": 40.4997192, "longitude": -74.4532397, "minFreeDelivery": 0.0, "taxRate": 0.0688, "acceptsCash": false, "acceptsCard": true, "offersPickup": true, "offersDelivery": true, "isTestRestaurant": false, "minWaitTime": 45, "maxWaitTime": 60, "open": false, "url": "https://eatstreet.com/new-brunswick-nj/restaurants/diesel-and-duke-new-brunswick", "hours": {"Monday": ["5:00 PM - 11:45 PM"], "Saturday": ["12:00 PM - 2:15 AM"], "Sunday": ["12:00 PM - 11:45 PM"], "Wednesday": ["5:00 PM - 11:45 PM"], "Tuesday": ["5:00 PM - 11:45 PM"], "Friday": ["12:00 PM - 2:15 AM"], "Thursday": ["5:00 PM - 2:15 AM"]}, "timezone": "US/Eastern"}, {"apiKey": "1b3e7d280d7bcddd459c89af9c680205e1b701345a1599c6", "deliveryMin": 50.0, "deliveryPrice": 13.0, "logoUrl": "https://eatstreet-static.s3.amazonaws.com/assets/images/restaurant_logos/dou-oven-40838_1498139202424.png", "name": "Dou Oven", "streetAddress": "636 Ridge Rd", "city": "Monmouth Junction", "state": "NJ", "zip": "8852", "foodTypes": ["Indian", "Buffets", "Desserts"], "phone": "(732) 230-3816", "latitude": 40.378119, "longitude": -74.549839, "minFreeDelivery": 0.0, "taxRate": 0.0688, "acceptsCash": true, "acceptsCard": true, "offersPickup": true, "offersDelivery": true, "isTestRestaurant": false, "minWaitTime": 45, "maxWaitTime": 60, "open": false, "url": "https://eatstreet.com/new-brunswick-nj/restaurants/dou-oven", "hours": {"Saturday": ["10:30 AM - 3:00 PM", "5:00 PM - 10:15 PM"], "Sunday": ["10:30 AM - 3:00 PM", "5:00 PM - 10:00 PM"], "Wednesday": ["10:30 AM - 2:30 PM", "5:00 PM - 9:45 PM"], "Tuesday": ["10:30 AM - 2:30 PM", "5:00 PM - 9:45 PM"], "Friday": ["10:30 AM - 3:00 PM", "5:00 PM - 10:15 PM"], "Thursday": ["10:30 AM - 2:30 PM", "5:00 PM - 9:45 PM"]}, "timezone": "US/Eastern"}, {"apiKey": "1b3e7d280d7bcddd459c89af9c6802059ae602391f649a82", "deliveryMin": 25.0, "logoUrl": "https://eatstreet-static.s3.amazonaws.com/assets/images/restaurant_logos/due-mari-pesce-e-vinotecca-40980_1501023929127..png", "name": "Due Mari", "streetAddress": "78 Albany St", "city": "New Brunswick", "state": "NJ", "zip": "08901", "foodTypes": ["Italian", "Pasta", "Seafood", "Burgers", "Sandwiches", "Bars"], "phone": "(732) 296-1600", "latitude": 40.496706, "longitude": -74.44261, "minFreeDelivery": 0.0, "taxRate": 0.0688, "acceptsCash": true, "acceptsCard": true, "offersPickup": true, "offersDelivery": true, "isTestRestaurant": false, "minWaitTime": 35, "maxWaitTime": 50, "open": false, "url": "https://eatstreet.com/new-brunswick-nj/restaurants/due-mari-pesce-e-vinotecca", "hours": {"Monday": ["11:30 AM - 9:00 PM"], "Saturday": ["11:00 AM - 10:30 PM"], "Sunday": ["12:00 PM - 9:00 PM"], "Wednesday": ["11:30 AM - 9:00 PM"], "Tuesday": ["11:30 AM - 9:00 PM"], "Friday": ["11:30 AM - 10:00 PM"], "Thursday": ["11:30 AM - 10:00 PM"]}, "timezone": "US/Eastern"}, {"apiKey": "1b3e7d280d7bcdddf15b4f2e73e76180d7ac8ee98d6c342e", "deliveryMin": 12.0, "logoUrl": "https://eatstreet-static.s3.amazonaws.com/assets/images/restaurant_logos/edo-japanese-restaurant-38623_1491599604622.png", "name": "Edo Sushi & Fatcup", "streetAddress": "16 Condict St.", "city": "New Brunswick", "state": "NJ", "zip": "08901", "foodTypes": ["Sushi", "Japanese", "Sushi Bars", "Korean", "Asian", "Ramen"], "phone": "(732) 514-0700", "latitude": 40.497784, "longitude": -74.449759, "minFreeDelivery": 0.0, "taxRate": 0.0688, "acceptsCash": true, "acceptsCard": true, "offersPickup": true, "offersDelivery": true, "isTestRestaurant": false, "minWaitTime": 35, "maxWaitTime": 50, "open": false, "url": "https://eatstreet.com/new-brunswick-nj/restaurants/edo-japanese-restaurant", "hours": {"Monday": ["11:00 AM - 10:30 PM"], "Saturday": ["12:00 PM - 10:30 PM"], "Sunday": ["12:00 PM - 10:30 PM"], "Wednesday": ["11:00 AM - 10:30 PM"], "Tuesday": ["11:00 AM - 10:30 PM"], "Friday": ["11:00 AM - 10:30 PM"], "Thursday": ["11:00 AM - 10:30 PM"]}, "timezone": "US/Eastern"}, {"apiKey": "1b3e7d280d7bcddd459c89af9c68020594904211630f3648", "deliveryMin": 12.0, "logoUrl": "https://eatstreet-static.s3.amazonaws.com/assets/images/restaurant_logos/efes-restaurant-41388_1505751759074.png", "name": "Efes Mediterranean Grill", "streetAddress": "32 Easton Ave", "city": "New Brunswick", "state": "NJ", "zip": "08901", "foodTypes": ["Greek", "Mediterranean", "Seafood", "Burgers", "Turkish"], "phone": "(732) 249-4100", "latitude": 40.497351, "longitude": -74.448141, "minFreeDelivery": 0.0, "taxRate": 0.0688, "acceptsCash": true, "acceptsCard": true, "offersPickup": true, "offersDelivery": true, "isTestRestaurant": false, "minWaitTime": 45, "maxWaitTime": 60, "open": false, "url": "https://eatstreet.com/new-brunswick-nj/restaurants/efes-restaurant-new-brunswick", "hours": {"Monday": ["11:00 AM - 12:00 AM"], "Saturday": ["11:00 AM - 12:00 AM"], "Sunday": ["11:00 AM - 12:00 AM"], "Wednesday": ["11:00 AM - 12:00 AM"], "Tuesday": ["11:00 AM - 12:00 AM"], "Friday": ["11:00 AM - 12:00 AM"], "Thursday": ["11:00 AM - 12:00 AM"]}, "timezone": "US/Eastern"}, {"apiKey": "1b3e7d280d7bcdddf15b4f2e73e7618010f904a89a759051", "deliveryMin": 15.0, "logoUrl": "https://eatstreet-static.s3.amazonaws.com/assets/images/restaurant_logos/evelyns-restaurant-and-bar-35794_1457395153010.png", "name": "Evelyn's Restaurant & Bar", "streetAddress": "45 Easton Ave", "city": "New Brunswick", "state": "NJ", "zip": "08901", "foodTypes": ["Middle Eastern Food", "Mediterranean Food", "Middle Eastern", "Mediterranean"], "phone": "(732) 246-8792", "latitude": 40.49797, "longitude": -74.4487436, "minFreeDelivery": 0.0, "taxRate": 0.0688, "acceptsCash": true, "acceptsCard": true, "offersPickup": true, "offersDelivery": true, "isTestRestaurant": false, "minWaitTime": 35, "maxWaitTime": 50, "open": false, "url": "https://eatstreet.com/new-brunswick-nj/restaurants/evelyns-restaurant-and-bar-new-brunswick", "hours": {"Monday": ["11:30 AM - 11:00 PM"], "Saturday": ["11:30 AM - 11:00 PM"], "Sunday": ["11:30 AM - 11:00 PM"], "Wednesday": ["11:30 AM - 11:00 PM"], "Tuesday": ["11:30 AM - 11:00 PM"], "Friday": ["11:30 AM - 11:00 PM"], "Thursday": ["11:30 AM - 11:00 PM"]}, "timezone": "US/Eastern"}, {"apiKey": "1b3e7d280d7bcddd459c89af9c680205419df080fa7a0bf1", "deliveryMin": 10.0, "logoUrl": "https://eatstreet-static.s3.amazonaws.com/assets/images/restaurant_logos/four-sisters-gourmet-41505_1507576184681.png", "name": "Four Sisters Gourmet Pizza", "streetAddress": "69 W Somerset St", "city": "Raritan", "state": "NJ", "zip": "08869", "foodTypes": ["Pizza", "Sandwiches", "Pasta", "Burgers"], "phone": "(908) 575-0113", "latitude": 40.497991, "longitude": -74.445892, "minFreeDelivery": 0.0, "taxRate": 0.0688, "acceptsCash": true, "acceptsCard": true, "offersPickup": true, "offersDelivery": true, "isTestRestaurant": false, "minWaitTime": 45, "maxWaitTime": 60, "open": false, "url": "https://eatstreet.com/new-brunswick-nj/restaurants/four-sisters-gourmet-pizza", "hours": {"Monday": ["11:00 AM - 9:00 PM"], "Saturday": ["11:00 AM - 10:00 PM"], "Sunday": ["11:00 AM - 8:00 PM"], "Wednesday": ["11:00 AM - 9:00 PM"], "Tuesday": ["11:00 AM - 9:00 PM"], "Friday": ["11:00 AM - 10:00 PM"], "Thursday": ["11:00 AM - 9:00 PM"]}, "timezone": "US/Eastern"}, {"apiKey": "1b3e7d280d7bcdddf15b4f2e73e761808de045896cde3930", "deliveryMin": 15.0, "deliveryPrice": 2.0, "logoUrl": "https://eatstreet-static.s3.amazonaws.com/assets/images/restaurant_logos/franks-pizza-and-italian-32127_1439062487820.png", "name": "Frank's Pizza & Italian Restaurant", "streetAddress": "601 Tea St", "city": "Bound Brook", "state": "NJ", "zip": "08805", "foodTypes": ["Subs & Sandwiches", "Pizza", "Italian Food", "Italian"], "phone": "(732) 868-0488", "latitude": 40.568654, "longitude": -74.55157, "minFreeDelivery": 0.0, "taxRate": 0.0688, "acceptsCash": true, "acceptsCard": true, "offersPickup": true, "offersDelivery": true, "isTestRestaurant": false, "minWaitTime": 45, "maxWaitTime": 60, "open": false, "url": "https://eatstreet.com/new-brunswick-nj/restaurants/franks-pizza-and-italian", "hours": {"Monday": ["11:00 AM - 10:00 PM"], "Saturday": ["11:00 AM - 11:00 PM"], "Sunday": ["12:00 PM - 10:00 PM"], "Wednesday": ["11:00 AM - 10:00 PM"], "Tuesday": ["11:00 AM - 10:00 PM"], "Friday": ["11:00 AM - 11:00 PM"], "Thursday": ["11:00 AM - 10:00 PM"]}, "timezone": "US/Eastern"}, {"apiKey": "1b3e7d280d7bcddd459c89af9c680205a14c22ce16fa65a7", "deliveryMin": 15.0, "logoUrl": "https://eatstreet-static.s3.amazonaws.com/assets/images/restaurant_logos/fritzs-40106_1499894830047..png", "name": "Fritz's", "streetAddress": "115 Easton Ave", "city": "New Brunswick", "state": "NJ", "zip": "08901", "foodTypes": ["Breakfast", "Sandwiches", "Healthy", "American (Traditional)", "Desserts", "Breakfast & Brunch"], "phone": "(732) 543-0202", "latitude": 40.499264, "longitude": -74.451949, "minFreeDelivery": 0.0, "taxRate": 0.0688, "acceptsCash": true, "acceptsCard": true, "offersPickup": true, "offersDelivery": true, "isTestRestaurant": false, "minWaitTime": 35, "maxWaitTime": 50, "open": false, "url": "https://eatstreet.com/new-brunswick-nj/restaurants/fritzs", "hours": {"Monday": ["11:00 AM - 8:30 PM"], "Saturday": ["11:00 AM - 8:30 PM"], "Sunday": ["12:00 PM - 3:30 PM"], "Wednesday": ["11:00 AM - 8:30 PM"], "Tuesday": ["11:00 AM - 8:30 PM"], "Friday": ["11:00 AM - 8:30 PM"], "Thursday": ["11:00 AM - 8:30 PM"]}, "timezone": "US/Eastern"}, {"apiKey": "1b3e7d280d7bcdddf15b4f2e73e7618025a58680981e128c", "deliveryMin": 15.0, "logoUrl": "https://eatstreet-static.s3.amazonaws.com/assets/images/restaurant_logos/george-street-ale-ho-38938_1517973801211.png", "name": "George Street Ale House", "streetAddress": "378 George St.", "city": "New Brunswick", "state": "NJ", "zip": "08901", "foodTypes": ["Gastropub", "Gastropubs", "American (New)", "Beer Bar"], "phone": "(732) 543-2408", "latitude": 40.495684, "longitude": -74.444272, "minFreeDelivery": 0.0, "taxRate": 0.0688, "acceptsCash": false, "acceptsCard": true, "offersPickup": true, "offersDelivery": true, "isTestRestaurant": false, "minWaitTime": 45, "maxWaitTime": 60, "open": false, "url": "https://eatstreet.com/new-brunswick-nj/restaurants/george-street-ale-house", "hours": {"Monday": ["11:30 AM - 12:00 AM"], "Saturday": ["3:00 PM - 12:00 AM"], "Sunday": ["3:00 PM - 12:00 AM"], "Wednesday": ["11:30 AM - 12:00 AM"], "Tuesday": ["11:30 AM - 12:00 AM"], "Friday": ["11:30 AM - 12:00 AM"], "Thursday": ["11:30 AM - 12:00 AM"]}, "timezone": "US/Eastern"}, {"apiKey": "1b3e7d280d7bcdddf15b4f2e73e76180c5f2d86084332fb6", "deliveryMin": 10.0, "logoUrl": "https://eatstreet-static.s3.amazonaws.com/assets/images/restaurant_logos/giovannelis-pizza-and-grill-35436_1454446223327.png", "name": "Giovanneli's Pizza & Grill", "streetAddress": "60 Easton Ave", "city": "New Brunswick", "state": "NJ", "zip": "08901", "foodTypes": ["Pizza", "Italian Food"], "phone": "(732) 220-1220", "latitude": 40.49787, "longitude": -74.449417, "minFreeDelivery": 0.0, "taxRate": 0.0688, "acceptsCash": true, "acceptsCard": true, "offersPickup": true, "offersDelivery": true, "isTestRestaurant": false, "minWaitTime": 35, "maxWaitTime": 50, "open": true, "url": "https://eatstreet.com/new-brunswick-nj/restaurants/giovannelis-pizza-and-grill", "hours": {"Monday": ["11:00 AM - 3:45 AM"], "Saturday": ["11:00 AM - 3:45 AM"], "Sunday": ["12:00 PM - 2:30 AM"], "Wednesday": ["11:00 AM - 3:45 AM"], "Tuesday": ["11:00 AM - 3:45 AM"], "Friday": ["11:00 AM - 3:45 AM"], "Thursday": ["11:00 AM - 3:45 AM"]}, "timezone": "US/Eastern"}, {"apiKey": "1b3e7d280d7bcddd459c89af9c680205afe5b127a31a328c", "deliveryMin": 18.0, "logoUrl": "https://eatstreet-static.s3.amazonaws.com/assets/images/restaurant_logos/harvest-moon-brewery-and-cafe-40455_1492973383173.png", "name": "Harvest Moon Brewery & Cafe", "streetAddress": "392 George St", "city": "New Brunswick", "state": "NJ", "zip": "08901", "foodTypes": ["Brewery", "American", "Pizza", "Sandwiches", "Beer Bar", "American (Traditional)"], "phone": "(732) 249-6666", "latitude": 40.496121, "longitude": -74.444346, "minFreeDelivery": 0.0, "taxRate": 0.0688, "acceptsCash": true, "acceptsCard": true, "offersPickup": true, "offersDelivery": true, "isTestRestaurant": false, "minWaitTime": 35, "maxWaitTime": 45, "open": false, "url": "https://eatstreet.com/new-brunswick-nj/restaurants/harvest-moon-brewery-and-cafe", "hours": {"Monday": ["11:30 AM - 9:00 PM"], "Saturday": ["11:30 AM - 10:00 PM"], "Sunday": ["12:00 PM - 9:00 PM"], "Wednesday": ["11:30 AM - 9:00 PM"], "Tuesday": ["11:30 AM - 9:00 PM"], "Friday": ["11:30 AM - 10:00 PM"], "Thursday": ["11:30 AM - 9:00 PM"]}, "timezone": "US/Eastern"}, {"apiKey": "1b3e7d280d7bcdddf15b4f2e73e76180b4ac1bfb1d341f29", "deliveryMin": 15.0, "deliveryPrice": 0.0, "logoUrl": "https://eatstreet-static.s3.amazonaws.com/assets/images/restaurant_logos/healthy-garden-cafe-and-gourmet-pizza-32373_1440365996174.png", "name": "Healthy Garden Cafe & Gourmet Pizza", "streetAddress": "1372 Centennial Avenue", "city": "Piscataway", "state": "NJ", "zip": "08854", "foodTypes": ["Subs & Sandwiches", "Pizza", "Vegan", "Healthy Food", "Smoothies & Juices", "American Food", "Italian", "Wraps"], "phone": "(732) 529-6444", "latitude": 40.550864, "longitude": -74.434728, "minFreeDelivery": 0.0, "taxRate": 0.0663, "acceptsCash": true, "acceptsCard": true, "offersPickup": true, "offersDelivery": true, "isTestRestaurant": false, "minWaitTime": 45, "maxWaitTime": 60, "open": false, "url": "https://eatstreet.com/new-brunswick-nj/restaurants/healthy-garden-cafe-and-gourmet-pizza", "hours": {"Monday": ["10:00 AM - 8:50 PM"], "Saturday": ["10:00 AM - 9:50 PM"], "Sunday": ["10:00 AM - 8:50 PM"], "Wednesday": ["10:00 AM - 8:50 PM"], "Tuesday": ["10:00 AM - 8:50 PM"], "Friday": ["10:00 AM - 9:50 PM"], "Thursday": ["10:00 AM - 8:50 PM"]}, "timezone": "US/Eastern"}, {"apiKey": "1b3e7d280d7bcdddf15b4f2e73e761801122b8f997fff300", "deliveryMin": 11.0, "logoUrl": "https://eatstreet-static.s3.amazonaws.com/assets/images/restaurant_logos/hidden-grounds-coffee-34429_1447692209439.png", "name": "Hidden Grounds Coffee", "streetAddress": "106 Easton Ave", "city": "New Brunswick", "state": "NJ", "zip": "08901", "foodTypes": ["Coffee & Tea", "Smoothies & Juices", "Breakfast", "", "Bagels", "Breakfast & Brunch", "Bakeries", "Sandwiches"], "phone": "(732) 317-4117", "latitude": 40.498791, "longitude": -74.451776, "minFreeDelivery": 0.0, "taxRate": 0.0688, "acceptsCash": true, "acceptsCard": true, "offersPickup": true, "offersDelivery": false, "isTestRestaurant": false, "minWaitTime": 45, "maxWaitTime": 60, "open": false, "url": "https://eatstreet.com/new-brunswick-nj/restaurants/hidden-grounds-coffee-new-brunswick", "hours": {"Monday": ["8:00 AM - 8:00 PM"], "Saturday": ["9:00 AM - 6:00 PM"], "Sunday": ["9:00 AM - 6:00 PM"], "Wednesday": ["8:00 AM - 8:00 PM"], "Tuesday": ["8:00 AM - 8:00 PM"], "Friday": ["9:00 AM - 6:00 PM"], "Thursday": ["8:00 AM - 8:00 PM"]}, "timezone": "US/Eastern"}, {"apiKey": "1b3e7d280d7bcdddf15b4f2e73e76180e0a696646bc0c4e2", "deliveryMin": 12.0, "deliveryPrice": 1.0, "logoUrl": "https://eatstreet-static.s3.amazonaws.com/assets/images/restaurant_logos/hunan-royal-restaurant-37829_1471825984155.png", "name": "Hunan Royal Restaurant", "streetAddress": "88 Watchung Ave", "city": "North Plainfield", "state": "NJ", "zip": "07060", "foodTypes": ["Chinese Food", "Chinese"], "phone": "(908) 668-1868", "latitude": 40.621822, "longitude": -74.425038, "minFreeDelivery": 0.0, "taxRate": 0.0688, "acceptsCash": true, "acceptsCard": true, "offersPickup": false, "offersDelivery": true, "isTestRestaurant": false, "minWaitTime": 45, "maxWaitTime": 60, "open": false, "url": "https://eatstreet.com/new-brunswick-nj/restaurants/hunan-royal-restaurant", "hours": {"Monday": ["11:00 AM - 10:30 PM"], "Saturday": ["11:00 AM - 11:00 PM"], "Sunday": ["12:00 PM - 10:00 PM"], "Wednesday": ["11:00 AM - 10:30 PM"], "Friday": ["11:00 AM - 11:00 PM"], "Thursday": ["11:00 AM - 10:30 PM"]}, "timezone": "US/Eastern"}, {"apiKey": "1b3e7d280d7bcddd459c89af9c680205c713763b3068ba6b", "deliveryMin": 20.0, "deliveryPrice": 3.0, "logoUrl": "https://eatstreet-static.s3.amazonaws.com/assets/images/restaurant_logos/indian-house-of-dosa-41899_1512991710442.png", "name": "Indian House Of Dosas", "streetAddress": "1665 Stelton Rd", "city": "Piscataway Township", "state": "NJ", "zip": "08854", "foodTypes": ["Indian"], "phone": "(732) 844-3672", "latitude": 40.533813, "longitude": -74.418699, "minFreeDelivery": 0.0, "taxRate": 0.0688, "acceptsCash": true, "acceptsCard": true, "offersPickup": true, "offersDelivery": true, "isTestRestaurant": false, "minWaitTime": 45, "maxWaitTime": 60, "open": false, "url": "https://eatstreet.com/new-brunswick-nj/restaurants/indian-house-of-dosas", "hours": {"Monday": ["10:30 AM - 2:15 PM", "6:00 PM - 9:45 PM"], "Saturday": ["10:00 AM - 2:45 PM", "5:30 PM - 9:45 PM"], "Sunday": ["10:00 AM - 2:45 PM", "5:30 PM - 9:45 PM"], "Wednesday": ["10:30 AM - 2:15 PM"], "Friday": ["10:30 AM - 2:15 PM", "6:00 PM - 9:45 PM"], "Thursday": ["10:30 AM - 2:15 PM", "6:00 PM - 9:45 PM"]}, "timezone": "US/Eastern"}, {"apiKey": "1b3e7d280d7bcddd459c89af9c680205ca019f438e1606ef", "deliveryMin": 15.0, "deliveryPrice": 0.0, "logoUrl": "https://eatstreet-static.s3.amazonaws.com/assets/images/restaurant_logos/jk-luncheonette-and-41395_1505751590000.png", "name": "JK Luncheonette & Grill", "streetAddress": "5 Joyce Kilmer Avenue", "city": "New Brunswick", "state": "NJ", "zip": "08901", "foodTypes": ["Breakfast", "Sandwiches", "Burgers", "Peruvian", "Breakfast & Brunch", "Wraps"], "phone": "(732) 640-2955", "latitude": 40.492703, "longitude": -74.447912, "minFreeDelivery": 0.0, "taxRate": 0.0688, "acceptsCash": true, "acceptsCard": true, "offersPickup": true, "offersDelivery": true, "isTestRestaurant": false, "minWaitTime": 45, "maxWaitTime": 60, "open": false, "url": "https://eatstreet.com/new-brunswick-nj/restaurants/jk-luncheonette-and-grill", "hours": {"Monday": ["6:00 AM - 6:00 PM"], "Saturday": ["9:00 AM - 8:00 PM"], "Wednesday": ["6:00 AM - 6:00 PM"], "Tuesday": ["6:00 AM - 6:00 PM"], "Friday": ["6:00 AM - 6:00 PM"], "Thursday": ["6:00 AM - 6:00 PM"]}, "timezone": "US/Eastern"}, {"apiKey": "1b3e7d280d7bcddd459c89af9c680205f54da657c97eeb31", "deliveryMin": 15.0, "logoUrl": "https://eatstreet-static.s3.amazonaws.com/assets/images/restaurant_logos/jersey-mikes-subs-41998_1515667484425.png", "name": "Jersey Mike's Subs", "streetAddress": "44 College Ave", "city": "New Brunswick", "state": "NJ", "zip": "08901", "foodTypes": ["Sandwiches", "Fast Food", "Delis"], "phone": "(732) 448-7300", "latitude": 40.499482, "longitude": -74.448734, "minFreeDelivery": 0.0, "taxRate": 0.0688, "acceptsCash": true, "acceptsCard": true, "offersPickup": true, "offersDelivery": true, "isTestRestaurant": false, "minWaitTime": 45, "maxWaitTime": 60, "open": false, "url": "https://eatstreet.com/new-brunswick-nj/restaurants/jersey-mikes-subs-new-brunswick", "hours": {"Monday": ["11:00 AM - 9:00 PM"], "Saturday": ["11:00 AM - 9:00 PM"], "Sunday": ["11:00 AM - 9:00 PM"], "Wednesday": ["11:00 AM - 9:00 PM"], "Tuesday": ["11:00 AM - 9:00 PM"], "Friday": ["11:00 AM - 9:00 PM"], "Thursday": ["11:00 AM - 9:00 PM"]}, "timezone": "US/Eastern"}, {"apiKey": "1b3e7d280d7bcddd459c89af9c6802050651654f4914db3f", "deliveryMin": 15.0, "logoUrl": "https://eatstreet-static.s3.amazonaws.com/assets/images/restaurant_logos/default-42536_1520845902870.png", "name": "Jersey Subs", "streetAddress": "380 George Street", "city": "New Brunswick", "state": "NJ", "zip": "8901", "foodTypes": ["Sandwiches"], "phone": "(732) 418-7900", "latitude": 40.49574, "longitude": -74.444296, "minFreeDelivery": 0.0, "taxRate": 0.0663, "acceptsCash": true, "acceptsCard": true, "offersPickup": true, "offersDelivery": true, "isTestRestaurant": false, "minWaitTime": 45, "maxWaitTime": 60, "open": false, "url": "https://eatstreet.com/new-brunswick-nj/restaurants/jersey-subs-george-street", "hours": {"Monday": ["11:00 AM - 4:00 PM"], "Wednesday": ["11:00 AM - 4:00 PM"], "Tuesday": ["11:00 AM - 4:00 PM"], "Friday": ["11:00 AM - 4:00 PM"], "Thursday": ["11:00 AM - 4:00 PM"]}, "timezone": "US/Eastern"}, {"apiKey": "1b3e7d280d7bcddd65357bbaef9033f45bf9a8ec12648d42", "deliveryMin": 10.0, "logoUrl": "https://eatstreet-static.s3.amazonaws.com/assets/images/restaurant_logos/jimmys-grill-9675_1396297892623.png", "name": "Jimmy's Pizza & Grill", "streetAddress": "104 Easton Ave", "city": "New Brunswick", "state": "NJ", "zip": "08901", "foodTypes": ["Subs & Sandwiches", "Seafood", "Burgers", "Healthy Food", "Chicken", "American Food", "American (Traditional)"], "phone": "(732) 418-9600", "latitude": 40.4989441, "longitude": -74.4517468, "minFreeDelivery": 0.0, "taxRate": 0.0688, "acceptsCash": false, "acceptsCard": true, "offersPickup": true, "offersDelivery": true, "isTestRestaurant": false, "minWaitTime": 40, "maxWaitTime": 55, "open": true, "url": "https://eatstreet.com/new-brunswick-nj/restaurants/jimmys-grill", "hours": {"Monday": ["4:00 PM - 3:00 AM"], "Saturday": ["4:00 PM - 3:00 AM"], "Sunday": ["4:00 PM - 3:00 AM"], "Wednesday": ["4:00 PM - 3:00 AM"], "Tuesday": ["4:00 PM - 3:00 AM"], "Friday": ["4:00 PM - 3:00 AM"], "Thursday": ["4:00 PM - 3:00 AM"]}, "timezone": "US/Eastern"}, {"apiKey": "1b3e7d280d7bcdddf15b4f2e73e76180defd0e08db726389", "deliveryMin": 120.0, "deliveryPrice": 25.0, "logoUrl": "https://eatstreet-static.s3.amazonaws.com/assets/images/restaurant_logos/joes-famous-pizza-catering-32169_1438806388051.png", "name": "Joe's Famous Pizza Catering", "streetAddress": "132 s Pine Ave", "city": "South Amboy", "state": "NJ", "zip": "08879", "foodTypes": ["Spanish Food", "Pizza", "Catering", "Breakfast", "Spanish"], "phone": "(732) 721-1040", "latitude": 40.479276, "longitude": -74.285019, "minFreeDelivery": 0.0, "taxRate": 0.0688, "acceptsCash": true, "acceptsCard": true, "offersPickup": true, "offersDelivery": true, "isTestRestaurant": false, "minWaitTime": 45, "maxWaitTime": 60, "open": false, "url": "https://eatstreet.com/newark-nj/restaurants/joes-famous-pizza-catering", "hours": {"Monday": ["11:00 AM - 9:00 PM"], "Saturday": ["11:00 AM - 10:00 PM"], "Sunday": ["11:00 AM - 9:00 PM"], "Wednesday": ["11:00 AM - 9:00 PM"], "Tuesday": ["11:00 AM - 9:00 PM"], "Friday": ["11:00 AM - 10:00 PM"], "Thursday": ["11:00 AM - 9:00 PM"]}, "timezone": "US/Eastern"}, {"apiKey": "1b3e7d280d7bcdddf15b4f2e73e761808baacfbbcd25bb58", "deliveryMin": 20.0, "deliveryPrice": 2.0, "logoUrl": "https://eatstreet-static.s3.amazonaws.com/assets/images/restaurant_logos/joes-meat-market-35750_1456948198418.png", "name": "Joe's Meat Market", "streetAddress": "28 Main St", "city": "South Bound Brook", "state": "NJ", "zip": "08880", "foodTypes": ["Subs & Sandwiches", "Deli", "Pizza", "Meat Shops", "Breakfast", "Delis"], "phone": "(732) 356-4557", "latitude": 40.556671, "longitude": -74.527203, "minFreeDelivery": 0.0, "taxRate": 0.0688, "acceptsCash": true, "acceptsCard": true, "offersPickup": true, "offersDelivery": true, "isTestRestaurant": false, "minWaitTime": 45, "maxWaitTime": 60, "open": false, "url": "https://eatstreet.com/new-brunswick-nj/restaurants/joes-meat-market", "hours": {"Monday": ["7:00 AM - 9:00 PM"], "Saturday": ["7:00 AM - 10:00 PM"], "Sunday": ["8:00 AM - 8:00 PM"], "Wednesday": ["7:00 AM - 9:00 PM"], "Tuesday": ["7:00 AM - 9:00 PM"], "Friday": ["7:00 AM - 10:00 PM"], "Thursday": ["7:00 AM - 9:00 PM"]}, "timezone": "US/Eastern"}, {"apiKey": "1b3e7d280d7bcdddf15b4f2e73e76180cb8901d06c868bee", "deliveryMin": 12.0, "logoUrl": "https://eatstreet-static.s3.amazonaws.com/assets/images/restaurant_logos/judys-kitchen-35544_1455225127745.png", "name": "Judy's Kitchen", "streetAddress": "153 Hamilton Street", "city": "New Brunswick", "state": "NJ", "zip": "08901", "foodTypes": ["Subs & Sandwiches", "Burgers", "Spanish Food", "Diner Food", "American Food", "Healthy Food", "Breakfast", "Spanish", "Diners", "American (Traditional)"], "phone": "(848) 209-9851", "latitude": 40.497954, "longitude": -74.451648, "minFreeDelivery": 0.0, "taxRate": 0.0688, "acceptsCash": true, "acceptsCard": true, "offersPickup": true, "offersDelivery": true, "isTestRestaurant": false, "minWaitTime": 35, "maxWaitTime": 50, "open": false, "url": "https://eatstreet.com/new-brunswick-nj/restaurants/judys-kitchen-new-brunswick", "hours": {"Monday": ["11:00 AM - 10:00 PM"], "Saturday": ["11:00 AM - 10:30 PM"], "Sunday": ["11:00 AM - 9:30 PM"], "Wednesday": ["11:00 AM - 10:30 PM"], "Tuesday": ["11:00 AM - 10:30 PM"], "Friday": ["11:00 AM - 10:30 PM"], "Thursday": ["11:00 AM - 10:30 PM"]}, "timezone": "US/Eastern"}, {"apiKey": "1b3e7d280d7bcddd65357bbaef9033f4a81bcb88fff31b94", "deliveryMin": 15.0, "logoUrl": "https://eatstreet-static.s3.amazonaws.com/assets/images/restaurant_logos/kbg-korean-bbq-and-grill-9943_1396369054785.png", "name": "KBG Korean BBQ & Grill", "streetAddress": "6 Easton Ave", "city": "New Brunswick", "state": "NJ", "zip": "08901", "foodTypes": ["Mexican Food", "Korean Food", "American Food", "Korean", "American (Traditional)"], "phone": "(732) 626-5406", "latitude": 40.496473, "longitude": -74.446419, "minFreeDelivery": 0.0, "taxRate": 0.0688, "acceptsCash": true, "acceptsCard": true, "offersPickup": true, "offersDelivery": true, "isTestRestaurant": false, "minWaitTime": 35, "maxWaitTime": 50, "open": false, "url": "https://eatstreet.com/new-brunswick-nj/restaurants/kbg-korean-bbq-and-grill-new-brunswick", "hours": {"Monday": ["12:00 PM - 9:30 PM"], "Saturday": ["12:00 PM - 9:30 PM"], "Sunday": ["12:00 PM - 9:30 PM"], "Wednesday": ["12:00 PM - 9:30 PM"], "Tuesday": ["12:00 PM - 9:30 PM"], "Friday": ["12:00 PM - 9:30 PM"], "Thursday": ["12:00 PM - 9:30 PM"]}, "timezone": "US/Eastern"}, {"apiKey": "1b3e7d280d7bcddd459c89af9c680205af627aa42f49bcc6", "deliveryMin": 0.0, "logoUrl": "https://eatstreet-static.s3.amazonaws.com/assets/images/restaurant_logos/king-of-gyro-42066_1516703202601.png", "name": "King of Gyro", "streetAddress": "105 Easton Avenue", "city": "New Brunswick", "state": "NJ", "zip": "08901", "foodTypes": ["Seafood", "Burgers", "Mediterranean", "Sandwiches", "Halal", "Middle Eastern"], "phone": "(732) 964-3400", "latitude": 40.49904, "longitude": -74.451597, "minFreeDelivery": 0.0, "taxRate": 0.0688, "acceptsCash": true, "acceptsCard": true, "offersPickup": true, "offersDelivery": true, "isTestRestaurant": false, "minWaitTime": 45, "maxWaitTime": 60, "open": true, "url": "https://eatstreet.com/new-brunswick-nj/restaurants/king-of-gyro", "hours": {"Monday": ["11:00 AM - 2:00 AM"], "Saturday": ["11:00 AM - 2:00 AM"], "Sunday": ["11:00 AM - 2:00 AM"], "Wednesday": ["11:00 AM - 2:00 AM"], "Tuesday": ["11:00 AM - 2:00 AM"], "Friday": ["11:00 AM - 2:00 AM"], "Thursday": ["11:00 AM - 2:00 AM"]}, "timezone": "US/Eastern"}, {"apiKey": "1b3e7d280d7bcdddf15b4f2e73e76180532ff605a5afd667", "deliveryMin": 7.0, "logoUrl": "https://eatstreet-static.s3.amazonaws.com/assets/images/restaurant_logos/knights-express-pizza-and-grill-34851_1472001499483.png", "name": "Knights Express Pizza & Grill", "streetAddress": "43 a Easton Ave", "city": "New Brunswick", "state": "NJ", "zip": "08901", "foodTypes": ["Subs & Sandwiches", "Pizza", "Breakfast & Brunch", "Sandwiches"], "phone": "(732) 640-0101", "latitude": 40.498009, "longitude": -74.448555, "minFreeDelivery": 0.0, "taxRate": 0.0688, "acceptsCash": true, "acceptsCard": true, "offersPickup": true, "offersDelivery": true, "isTestRestaurant": false, "minWaitTime": 45, "maxWaitTime": 60, "open": true, "url": "https://eatstreet.com/new-brunswick-nj/restaurants/knights-express-pizza-and-grill", "hours": {"Monday": ["10:00 AM - 3:45 AM"], "Saturday": ["9:00 AM - 3:45 AM"], "Sunday": ["9:00 AM - 3:45 AM"], "Wednesday": ["10:00 AM - 3:45 AM"], "Tuesday": ["10:00 AM - 3:45 AM"], "Friday": ["10:00 AM - 3:45 AM"], "Thursday": ["10:00 AM - 3:45 AM"]}, "timezone": "US/Eastern"}, {"apiKey": "1b3e7d280d7bcddd459c89af9c680205ac3cea468f2ac980", "deliveryMin": 25.0, "logoUrl": "https://eatstreet-static.s3.amazonaws.com/assets/images/restaurant_logos/default-41450_1506617151771.png", "name": "Krauszer's Food Store", "streetAddress": "4 Brunswick Avenue", "city": "Edison", "state": "NJ", "zip": "08817", "foodTypes": ["Chicken", "Breakfast", "Sandwiches", "American", "Convenience Stores"], "phone": "(732) 777-9525", "latitude": 40.52495, "longitude": -74.41338, "minFreeDelivery": 0.0, "taxRate": 0.0688, "acceptsCash": true, "acceptsCard": true, "offersPickup": true, "offersDelivery": true, "isTestRestaurant": false, "minWaitTime": 45, "maxWaitTime": 60, "open": false, "url": "https://eatstreet.com/new-brunswick-nj/restaurants/krauszers-food-store", "hours": {"Monday": ["6:00 AM - 12:00 AM"], "Saturday": ["6:00 AM - 12:00 AM"], "Sunday": ["6:00 AM - 12:00 AM"], "Wednesday": ["6:00 AM - 12:00 AM"], "Tuesday": ["6:00 AM - 12:00 AM"], "Friday": ["6:00 AM - 12:00 AM"], "Thursday": ["6:00 AM - 12:00 AM"]}, "timezone": "US/Eastern"}, {"apiKey": "1b3e7d280d7bcddd459c89af9c68020534ae1eabd466010f", "deliveryMin": 15.0, "logoUrl": "https://eatstreet-static.s3.amazonaws.com/assets/images/restaurant_logos/la-catrina-42199_1518431807316.png", "name": "La Catrina", "streetAddress": "144 Easton Avenue", "city": "New Brunswick", "state": "NJ", "zip": "8901", "foodTypes": ["Mexican", "Juice Bars & Smoothies"], "phone": "(732) 628-0451", "latitude": 40.499355, "longitude": -74.453364, "minFreeDelivery": 0.0, "taxRate": 0.0688, "acceptsCash": true, "acceptsCard": true, "offersPickup": true, "offersDelivery": true, "isTestRestaurant": false, "minWaitTime": 45, "maxWaitTime": 60, "open": false, "url": "https://eatstreet.com/new-brunswick-nj/restaurants/la-catrina", "hours": {"Monday": ["12:00 PM - 12:00 AM"], "Saturday": ["12:00 PM - 2:00 AM"], "Sunday": ["12:00 PM - 12:00 AM"], "Wednesday": ["12:00 PM - 12:00 AM"], "Tuesday": ["12:00 PM - 12:00 AM"], "Friday": ["12:00 PM - 2:00 AM"], "Thursday": ["12:00 PM - 2:00 AM"]}, "timezone": "US/Eastern"}, {"apiKey": "1b3e7d280d7bcdddf15b4f2e73e761808c984f9fc502024b", "deliveryMin": 10.0, "logoUrl": "https://eatstreet-static.s3.amazonaws.com/assets/images/restaurant_logos/la-familia-35923_1458077928391.png", "name": "La Familia", "streetAddress": "160 Easton Avenue", "city": "New Brunswick", "state": "NJ", "zip": "08901", "foodTypes": ["Subs & Sandwiches", "Pizza"], "phone": "(732) 937-9500", "latitude": 40.499662, "longitude": -74.45404, "minFreeDelivery": 0.0, "taxRate": 0.0688, "acceptsCash": true, "acceptsCard": true, "offersPickup": true, "offersDelivery": true, "isTestRestaurant": false, "minWaitTime": 45, "maxWaitTime": 60, "open": false, "url": "https://eatstreet.com/new-brunswick-nj/restaurants/la-familia-new-brunswick", "hours": {"Monday": ["11:00 AM - 1:45 AM"], "Saturday": ["11:00 AM - 1:45 AM"], "Sunday": ["11:00 AM - 1:30 AM"], "Wednesday": ["11:00 AM - 1:45 AM"], "Tuesday": ["11:00 AM - 1:45 AM"], "Friday": ["11:00 AM - 1:45 AM"], "Thursday": ["11:00 AM - 1:45 AM"]}, "timezone": "US/Eastern"}, {"apiKey": "1b3e7d280d7bcddd144247b91fbcb2f33f250b0b2f080fe8", "deliveryMin": 10.0, "deliveryPrice": 0.0, "logoUrl": "https://eatstreet-static.s3.amazonaws.com/assets/images/restaurant_logos/luigis-pizza-new-york-style-26982_1423593296788.png", "name": "Luigi's Pizza New York Style", "streetAddress": "2239 S Clinton Ave", "city": "South Plainfield", "state": "NJ", "zip": "07080", "foodTypes": ["Pizza"], "phone": "(908) 756-8293", "latitude": 40.578739, "longitude": -74.431185, "minFreeDelivery": 0.0, "taxRate": 0.0688, "acceptsCash": true, "acceptsCard": true, "offersPickup": true, "offersDelivery": true, "isTestRestaurant": false, "minWaitTime": 45, "maxWaitTime": 60, "open": false, "url": "https://eatstreet.com/new-brunswick-nj/restaurants/luigis-pizza-new-york-style", "hours": {"Monday": ["10:00 AM - 10:00 PM"], "Saturday": ["10:00 AM - 10:00 PM"], "Sunday": ["12:00 PM - 9:00 PM"], "Wednesday": ["10:00 AM - 10:00 PM"], "Tuesday": ["10:00 AM - 10:00 PM"], "Friday": ["10:00 AM - 10:00 PM"], "Thursday": ["10:00 AM - 10:00 PM"]}, "timezone": "US/Eastern"}, {"apiKey": "1b3e7d280d7bcdddf15b4f2e73e761803c04f2a3920f5c92", "deliveryMin": 15.0, "logoUrl": "https://eatstreet-static.s3.amazonaws.com/assets/images/restaurant_logos/mamouns-falafel-restaurant-35927_1458074780049.png", "name": "Mamoun's Falafel Restaurant", "streetAddress": "58 Easton Ave", "city": "New Brunswick", "state": "NJ", "zip": "08901", "foodTypes": ["Middle Eastern Food", "Mediterranean Food", "Fast Food", "Middle Eastern", "Mediterranean"], "phone": "(732) 640-0794", "latitude": 40.4977476, "longitude": -74.4490706, "minFreeDelivery": 0.0, "taxRate": 0.0688, "acceptsCash": true, "acceptsCard": true, "offersPickup": true, "offersDelivery": true, "isTestRestaurant": false, "minWaitTime": 35, "maxWaitTime": 50, "open": true, "url": "https://eatstreet.com/new-brunswick-nj/restaurants/mamouns-falafel-restaurant-new-brunswick", "hours": {"Monday": ["11:00 AM - 1:20 AM"], "Saturday": ["11:00 AM - 1:20 AM"], "Sunday": ["12:00 PM - 12:20 AM"], "Wednesday": ["11:00 AM - 1:20 AM"], "Tuesday": ["11:00 AM - 1:20 AM"], "Friday": ["11:00 AM - 1:20 AM"], "Thursday": ["11:00 AM - 1:20 AM"]}, "timezone": "US/Eastern"}, {"apiKey": "1b3e7d280d7bcdddf15b4f2e73e76180760be1061e205d48", "deliveryMin": 20.0, "deliveryPrice": 3.0, "logoUrl": "https://eatstreet-static.s3.amazonaws.com/assets/images/restaurant_logos/masala-bay-38120_1478378737643.png", "name": "Masala Bay", "streetAddress": "1135 Easton Ave", "city": "Somerset", "state": "NJ", "zip": "8873", "foodTypes": ["Indian Food", "Indian", "Mediterranean"], "phone": "(732) 659-6922", "latitude": 40.518143, "longitude": -74.489413, "minFreeDelivery": 0.0, "taxRate": 0.0688, "acceptsCash": true, "acceptsCard": true, "offersPickup": true, "offersDelivery": true, "isTestRestaurant": false, "minWaitTime": 45, "maxWaitTime": 60, "open": false, "url": "https://eatstreet.com/new-brunswick-nj/restaurants/masala-bay", "hours": {"Monday": ["11:00 AM - 8:30 PM"], "Saturday": ["11:00 AM - 9:30 PM"], "Sunday": ["11:00 AM - 8:30 PM"], "Wednesday": ["11:00 AM - 8:30 PM"], "Tuesday": ["11:00 AM - 8:30 PM"], "Friday": ["11:00 AM - 9:30 PM"], "Thursday": ["11:00 AM - 8:30 PM"]}, "timezone": "US/Eastern"}, {"apiKey": "1b3e7d280d7bcdddf15b4f2e73e761805e71605f017e8d26", "deliveryMin": 12.5, "logoUrl": "https://eatstreet-static.s3.amazonaws.com/assets/images/restaurant_logos/mezza-luna-pizza-38887_1493655757972.png", "name": "Mezza Luna Pizza", "streetAddress": "1075 Easton Ave.", "city": "Somerset", "state": "NJ", "zip": "08873", "foodTypes": ["Pizza", "Italian"], "phone": "(732) 659-6383", "latitude": 40.516691, "longitude": -74.488145, "minFreeDelivery": 0.0, "taxRate": 0.0688, "acceptsCash": true, "acceptsCard": true, "offersPickup": true, "offersDelivery": true, "isTestRestaurant": false, "minWaitTime": 45, "maxWaitTime": 60, "open": false, "url": "https://eatstreet.com/new-brunswick-nj/restaurants/mezza-luna-pizza", "hours": {"Monday": ["5:00 PM - 9:00 PM"], "Saturday": ["5:00 PM - 10:00 PM"], "Sunday": ["5:00 PM - 8:00 PM"], "Wednesday": ["5:00 PM - 9:00 PM"], "Tuesday": ["5:00 PM - 9:00 PM"], "Friday": ["5:00 PM - 10:00 PM"], "Thursday": ["5:00 PM - 9:00 PM"]}, "timezone": "US/Eastern"}, {"apiKey": "1b3e7d280d7bcdddf15b4f2e73e76180910366678cc24481", "deliveryMin": 12.0, "deliveryPrice": 2.0, "logoUrl": "https://eatstreet-static.s3.amazonaws.com/assets/images/restaurant_logos/midori-sushi-2-35951_1458079004868.png", "name": "Midori Sushi 2", "streetAddress": "1392 Centennial Ave", "city": "Piscataway", "state": "NJ", "zip": "08854", "foodTypes": ["Japanese Food", "Sushi", "Sushi Bars", "Japanese"], "phone": "(732) 981-9300", "latitude": 40.551293, "longitude": -74.43473, "minFreeDelivery": 0.0, "taxRate": 0.0663, "acceptsCash": true, "acceptsCard": true, "offersPickup": true, "offersDelivery": true, "isTestRestaurant": false, "minWaitTime": 45, "maxWaitTime": 60, "open": false, "url": "https://eatstreet.com/new-brunswick-nj/restaurants/midori-sushi-2", "hours": {"Monday": ["11:00 AM - 2:45 PM", "4:30 PM - 9:45 PM"], "Saturday": ["11:00 AM - 2:45 PM", "4:30 PM - 10:15 PM"], "Sunday": ["1:00 PM - 9:45 PM"], "Wednesday": ["11:00 AM - 2:45 PM", "4:30 PM - 9:45 PM"], "Tuesday": ["11:00 AM - 2:45 PM", "4:30 PM - 9:45 PM"], "Friday": ["11:00 AM - 2:45 PM", "4:30 PM - 10:15 PM"], "Thursday": ["11:00 AM - 2:45 PM", "4:30 PM - 9:45 PM"]}, "timezone": "US/Eastern"}, {"apiKey": "1b3e7d280d7bcdddf15b4f2e73e761802af1df009d1806f3", "deliveryMin": 30.0, "logoUrl": "https://eatstreet-static.s3.amazonaws.com/assets/images/restaurant_logos/namli-mediterranean-turkish-cuisine-38164_1476454496288.png", "name": "Namli Mediterranean Turkish Cuisine", "streetAddress": "88 Central Ave", "city": "New Brunswick", "state": "NJ", "zip": "08901", "foodTypes": ["Turkish Food", "Mediterranean Food", "Turkish", "Mediterranean", "Salad"], "phone": "(732) 543-0116", "latitude": 40.498402, "longitude": -74.457202, "minFreeDelivery": 0.0, "taxRate": 0.0688, "acceptsCash": false, "acceptsCard": true, "offersPickup": true, "offersDelivery": true, "isTestRestaurant": false, "minWaitTime": 45, "maxWaitTime": 60, "open": false, "url": "https://eatstreet.com/new-brunswick-nj/restaurants/namli-mediterranean-turkish-cuisine", "hours": {"Monday": ["11:00 AM - 9:30 PM"], "Saturday": ["11:00 AM - 9:30 PM"], "Sunday": ["12:00 PM - 8:30 PM"], "Wednesday": ["11:00 AM - 9:30 PM"], "Tuesday": ["11:00 AM - 9:30 PM"], "Friday": ["11:00 AM - 9:30 PM"], "Thursday": ["11:00 AM - 9:30 PM"]}, "timezone": "US/Eastern"}, {"apiKey": "1b3e7d280d7bcdddf15b4f2e73e7618053a77567e1e59092", "logoUrl": "https://eatstreet-static.s3.amazonaws.com/assets/images/restaurant_logos/nanking-restaurant-35546_1455285262939.png", "name": "Nanking Restaurant", "streetAddress": "4941 Stelton Rd", "city": "South Plainfield", "state": "NJ", "zip": "07080", "foodTypes": ["Chinese Food", "Indian Food", "Chinese"], "phone": "(908) 561-6085", "latitude": 40.551252, "longitude": -74.429035, "minFreeDelivery": 0.0, "taxRate": 0.0688, "acceptsCash": true, "acceptsCard": true, "offersPickup": true, "offersDelivery": false, "isTestRestaurant": false, "minWaitTime": 45, "maxWaitTime": 60, "open": false, "url": "https://eatstreet.com/new-brunswick-nj/restaurants/nanking-restaurant", "hours": {"Monday": ["11:30 AM - 3:00 PM", "5:30 PM - 10:00 PM"], "Saturday": ["11:30 AM - 3:00 PM", "5:30 PM - 10:00 PM"], "Sunday": ["11:30 AM - 3:00 PM", "5:30 PM - 10:00 PM"], "Wednesday": ["11:30 AM - 3:00 PM", "5:30 PM - 10:00 PM"], "Tuesday": ["11:30 AM - 3:00 PM", "5:30 PM - 10:00 PM"], "Friday": ["11:30 AM - 3:00 PM", "5:30 PM - 10:00 PM"], "Thursday": ["11:30 AM - 3:00 PM", "5:30 PM - 10:00 PM"]}, "timezone": "US/Eastern"}, {"apiKey": "1b3e7d280d7bcddd65357bbaef9033f40cdfb15b0c777476", "deliveryMin": 8.0, "deliveryPrice": 3.0, "logoUrl": "https://eatstreet-static.s3.amazonaws.com/assets/images/restaurant_logos/nuebies-9728_1396300196900.png", "name": "Nuebies", "streetAddress": "138 Easton Ave", "city": "New Brunswick", "state": "NJ", "zip": "08901", "foodTypes": ["American", "Salad", "Soup", "Burger", "Ribs", "Pasta", "Wraps", "Mexican", "Pizza", "American (New)"], "phone": "(732) 214-8666", "latitude": 40.4993294, "longitude": -74.4531697, "minFreeDelivery": 0.0, "taxRate": 0.0688, "acceptsCash": true, "acceptsCard": true, "offersPickup": true, "offersDelivery": true, "isTestRestaurant": false, "minWaitTime": 45, "maxWaitTime": 60, "open": true, "url": "https://eatstreet.com/new-brunswick-nj/restaurants/nuebies", "hours": {"Monday": ["11:00 AM - 3:15 AM"], "Saturday": ["11:00 AM - 4:00 AM"], "Sunday": ["11:00 AM - 3:15 AM"], "Wednesday": ["11:00 AM - 3:15 AM"], "Tuesday": ["11:00 AM - 3:15 AM"], "Friday": ["11:00 AM - 4:00 AM"], "Thursday": ["11:00 AM - 3:15 AM"]}, "timezone": "US/Eastern"}, {"apiKey": "1b3e7d280d7bcddd459c89af9c680205ada66496555ea221", "deliveryMin": 15.0, "logoUrl": "https://eatstreet-static.s3.amazonaws.com/assets/images/restaurant_logos/old-man-raffertys-40854_1498660223266..png", "name": "Old Man Rafferty's", "streetAddress": "106 Albany Street", "city": "New Brunswick", "state": "NJ", "zip": "08901", "foodTypes": ["Sandwiches", "Burgers", "Seafood", "Pasta", "Bars", "Italian", "American (Traditional)"], "phone": "(732) 846-6153", "latitude": 40.496478, "longitude": -74.443804, "minFreeDelivery": 0.0, "taxRate": 0.0688, "acceptsCash": true, "acceptsCard": true, "offersPickup": true, "offersDelivery": true, "isTestRestaurant": false, "minWaitTime": 45, "maxWaitTime": 60, "open": false, "url": "https://eatstreet.com/new-brunswick-nj/restaurants/old-man-faffertys", "hours": {"Monday": ["11:30 AM - 10:00 PM"], "Saturday": ["11:00 AM - 10:00 PM"], "Sunday": ["11:00 AM - 9:00 PM"], "Wednesday": ["11:30 AM - 10:00 PM"], "Tuesday": ["11:30 AM - 10:00 PM"], "Friday": ["11:30 AM - 10:00 PM"], "Thursday": ["11:30 AM - 10:00 PM"]}, "timezone": "US/Eastern"}, {"apiKey": "1b3e7d280d7bcdddf15b4f2e73e76180dc1d8e0e3aa0d3c0", "deliveryMin": 8.0, "logoUrl": "https://eatstreet-static.s3.amazonaws.com/assets/images/restaurant_logos/palermo-pizza-and-grill-36757_1462472315433.png", "name": "Palermo Pizza & Grill", "streetAddress": "124 Talmadge Rd.", "city": "Edison", "state": "NJ", "zip": "08817", "foodTypes": ["Subs & Sandwiches", "Pizza"], "phone": "(732) 243-9838", "latitude": 40.5333775, "longitude": -74.3946142, "minFreeDelivery": 0.0, "taxRate": 0.0688, "acceptsCash": true, "acceptsCard": true, "offersPickup": true, "offersDelivery": true, "isTestRestaurant": false, "minWaitTime": 45, "maxWaitTime": 60, "open": false, "url": "https://eatstreet.com/new-brunswick-nj/restaurants/palermo-pizza-and-grill", "hours": {"Monday": ["10:30 AM - 9:30 PM"], "Saturday": ["10:30 AM - 9:30 PM"], "Wednesday": ["10:30 AM - 9:30 PM"], "Tuesday": ["10:30 AM - 9:30 PM"], "Friday": ["10:30 AM - 10:00 PM"], "Thursday": ["10:30 AM - 9:30 PM"]}, "timezone": "US/Eastern"}, {"apiKey": "1b3e7d280d7bcddd65357bbaef9033f4dfd5468e018d7c5c", "deliveryMin": 10.0, "logoUrl": "https://eatstreet-static.s3.amazonaws.com/assets/images/restaurant_logos/panicos-brick-oven-pizza-9674_1396297816122.png", "name": "Panico's Brick Oven Pizza", "streetAddress": "94 Church St", "city": "New Brunswick", "state": "NJ", "zip": "08901", "foodTypes": ["Pizza", "Pasta", "Sandwich", "Salad", "Italian"], "phone": "(732) 545-6161", "latitude": 40.4958501, "longitude": -74.4436849, "minFreeDelivery": 0.0, "taxRate": 0.0688, "acceptsCash": true, "acceptsCard": true, "offersPickup": true, "offersDelivery": true, "isTestRestaurant": false, "minWaitTime": 35, "maxWaitTime": 50, "open": false, "url": "https://eatstreet.com/new-brunswick-nj/restaurants/panicos-brick-oven-pizza", "hours": {"Monday": ["11:00 AM - 10:45 PM"], "Saturday": ["11:00 AM - 1:40 AM"], "Sunday": ["11:00 AM - 9:45 PM"], "Wednesday": ["11:00 AM - 10:45 PM"], "Tuesday": ["11:00 AM - 10:45 PM"], "Friday": ["11:00 AM - 1:40 AM"], "Thursday": ["11:00 AM - 1:30 AM"]}, "timezone": "US/Eastern"}, {"apiKey": "1b3e7d280d7bcddd884225aec137a02ae100592ad0285468", "deliveryMin": 10.0, "deliveryPrice": 2.99, "logoUrl": "https://eatstreet-static.s3.amazonaws.com/assets/images/restaurant_logos/papa-johns-pizza-8383_1394739977948.png", "name": "Papa John's Pizza - Middlesex (3466)", "streetAddress": "710 Union Ave", "city": "Middlesex", "state": "NJ", "zip": "08846", "foodTypes": ["Pizza"], "phone": "(732) 271-8111", "latitude": 40.5774, "longitude": -74.506981, "minFreeDelivery": 0.0, "taxRate": 0.0688, "acceptsCash": false, "acceptsCard": true, "offersPickup": true, "offersDelivery": true, "isTestRestaurant": false, "minWaitTime": 45, "maxWaitTime": 60, "open": false, "url": "https://eatstreet.com/new-brunswick-nj/restaurants/papa-johns-pizza-middlesex", "hours": {"Monday": ["10:30 AM - 11:00 PM"], "Saturday": ["10:30 AM - 12:00 AM"], "Sunday": ["10:30 AM - 11:00 PM"], "Wednesday": ["10:30 AM - 11:00 PM"], "Tuesday": ["10:30 AM - 11:00 PM"], "Friday": ["10:30 AM - 12:00 AM"], "Thursday": ["10:30 AM - 11:00 PM"]}, "timezone": "US/Eastern"}, {"apiKey": "1b3e7d280d7bcdddf15b4f2e73e7618090a29e719bacd533", "deliveryMin": 10.0, "deliveryPrice": 4.5, "logoUrl": "https://eatstreet-static.s3.amazonaws.com/assets/images/restaurant_logos/paulies-pizza-35922_1458077827066.png", "name": "Paulie's Pizza", "streetAddress": "34 Easton Ave", "city": "New Brunswick", "state": "NJ", "zip": "08901", "foodTypes": ["Mexican Food", "Pizza", "Italian Food", "Italian", "Mexican"], "phone": "(732) 227-0900", "latitude": 40.4974167, "longitude": -74.448122, "minFreeDelivery": 0.0, "taxRate": 0.0688, "acceptsCash": true, "acceptsCard": true, "offersPickup": true, "offersDelivery": true, "isTestRestaurant": false, "minWaitTime": 45, "maxWaitTime": 60, "open": false, "url": "https://eatstreet.com/new-brunswick-nj/restaurants/paulies-pizza-34-easton-ave", "hours": {"Monday": ["11:00 AM - 12:00 AM"], "Saturday": ["11:00 AM - 12:00 AM"], "Sunday": ["11:00 AM - 10:30 PM"], "Wednesday": ["11:00 AM - 12:00 AM"], "Tuesday": ["11:00 AM - 12:00 AM"], "Friday": ["11:00 AM - 12:00 AM"], "Thursday": ["11:00 AM - 12:00 AM"]}, "timezone": "US/Eastern"}, {"apiKey": "1b3e7d280d7bcddd459c89af9c6802050d96f24bd6f6a330", "deliveryMin": 20.0, "deliveryPrice": 3.0, "logoUrl": "https://eatstreet-static.s3.amazonaws.com/assets/images/restaurant_logos/persis-biryani-and-i-41897_1512991646251.png", "name": "Persis Biryani & Indian Grill", "streetAddress": "1665 Stelton Rd", "city": "Piscataway", "state": "New Jersey", "zip": "08854", "foodTypes": ["Indian"], "phone": "(732) 508-7472", "latitude": 40.533813, "longitude": -74.418699, "minFreeDelivery": 0.0, "taxRate": 0.0688, "acceptsCash": true, "acceptsCard": true, "offersPickup": true, "offersDelivery": true, "isTestRestaurant": false, "minWaitTime": 70, "maxWaitTime": 85, "open": false, "url": "https://eatstreet.com/newark-nj/restaurants/persis-biryani-and-indian", "hours": {"Saturday": ["11:30 AM - 3:00 PM", "6:00 PM - 10:30 PM"], "Sunday": ["11:30 AM - 3:00 PM", "6:00 PM - 9:30 PM"], "Wednesday": ["11:30 AM - 3:00 PM", "6:00 PM - 10:00 PM"], "Tuesday": ["11:30 AM - 3:00 PM", "6:00 PM - 10:00 PM"], "Friday": ["11:30 AM - 3:00 PM", "6:00 PM - 10:30 PM"], "Thursday": ["11:30 AM - 3:00 PM", "6:00 PM - 10:00 PM"]}, "timezone": "US/Eastern"}, {"apiKey": "1b3e7d280d7bcddd459c89af9c680205c45295733a07f712", "deliveryMin": 15.0, "deliveryPrice": 2.0, "logoUrl": "https://eatstreet-static.s3.amazonaws.com/assets/images/restaurant_logos/piscataway-pizza-42029_1516270539254.png", "name": "Piscataway Pizza", "streetAddress": "1324 Centennial Ave", "city": "Piscataway", "state": "NJ", "zip": "8854", "foodTypes": ["Pizza", "Chicken", "Pasta", "Seafood", "Sandwiches", "Italian", "Burgers"], "phone": "(732) 562-0060", "latitude": 40.552124, "longitude": -74.44202, "minFreeDelivery": 0.0, "taxRate": 0.0688, "acceptsCash": true, "acceptsCard": true, "offersPickup": true, "offersDelivery": true, "isTestRestaurant": false, "minWaitTime": 45, "maxWaitTime": 60, "open": false, "url": "https://eatstreet.com/new-brunswick-nj/restaurants/piscataway-pizza", "hours": {"Monday": ["10:00 AM - 10:00 PM"], "Saturday": ["10:00 AM - 11:00 PM"], "Sunday": ["10:00 AM - 10:00 PM"], "Wednesday": ["10:00 AM - 10:00 PM"], "Tuesday": ["10:00 AM - 10:00 PM"], "Friday": ["10:00 AM - 11:00 PM"], "Thursday": ["10:00 AM - 10:00 PM"]}, "timezone": "US/Eastern"}, {"apiKey": "1b3e7d280d7bcdddf15b4f2e73e761809e29814959289c18", "deliveryMin": 8.0, "logoUrl": "https://eatstreet-static.s3.amazonaws.com/assets/images/restaurant_logos/pizza-stop-38751_1479334935918.png", "name": "Pizza Stop", "streetAddress": "340 Hamilton Blvd", "city": "South Plainfield", "state": "NJ", "zip": "07080", "foodTypes": ["Pizza", "Sandwiches"], "phone": "(908) 755-0101", "latitude": 40.576983, "longitude": -74.414188, "minFreeDelivery": 0.0, "taxRate": 0.0688, "acceptsCash": true, "acceptsCard": true, "offersPickup": true, "offersDelivery": true, "isTestRestaurant": false, "minWaitTime": 45, "maxWaitTime": 60, "open": false, "url": "https://eatstreet.com/new-brunswick-nj/restaurants/pizza-stop-south-plainfield", "hours": {"Monday": ["11:00 AM - 9:30 PM"], "Saturday": ["11:00 AM - 10:30 PM"], "Wednesday": ["11:00 AM - 9:30 PM"], "Tuesday": ["11:00 AM - 9:30 PM"], "Friday": ["11:00 AM - 9:30 PM"], "Thursday": ["11:00 AM - 9:30 PM"]}, "timezone": "US/Eastern"}, {"apiKey": "1b3e7d280d7bcdddf15b4f2e73e76180ac58ba225866e69d", "deliveryMin": 20.0, "logoUrl": "https://eatstreet-static.s3.amazonaws.com/assets/images/restaurant_logos/pooja-indian-cuisine-37374_1468539520865.png", "name": "Pooja Indian Cuisine", "streetAddress": "1075 Easton Avenue", "city": "Somerset", "state": "NJ", "zip": "08873", "foodTypes": ["Buffets", "Indian Food", "Indian", "Diners"], "phone": "(732) 220-0051", "latitude": 40.516691, "longitude": -74.4881446, "minFreeDelivery": 0.0, "taxRate": 0.0688, "acceptsCash": true, "acceptsCard": true, "offersPickup": true, "offersDelivery": false, "isTestRestaurant": false, "minWaitTime": 45, "maxWaitTime": 60, "open": false, "url": "https://eatstreet.com/new-brunswick-nj/restaurants/pooja-indian-cuisine", "hours": {"Monday": ["11:30 AM - 2:30 PM", "5:00 PM - 9:30 PM"], "Saturday": ["12:00 PM - 3:00 PM", "5:00 PM - 9:30 PM"], "Sunday": ["12:00 PM - 3:00 PM", "5:00 PM - 9:30 PM"], "Wednesday": ["11:30 AM - 2:30 PM", "5:00 PM - 9:30 PM"], "Tuesday": ["11:30 AM - 2:30 PM", "5:00 PM - 9:30 PM"], "Thursday": ["11:30 AM - 2:30 PM", "5:00 PM - 9:30 PM"]}, "timezone": "US/Eastern"}, {"apiKey": "1b3e7d280d7bcdddf15b4f2e73e76180fb065e8c04490fce", "deliveryMin": 12.0, "logoUrl": "https://eatstreet-static.s3.amazonaws.com/assets/images/restaurant_logos/r-u-hungry-31299_1434662876027.png", "name": "R U Hungry", "streetAddress": "95 Hamilton St", "city": "New Brunswick", "state": "NJ", "zip": "08901", "foodTypes": ["Subs & Sandwiches", "Food Truck", "Food Trucks", "Sandwiches", "Salad"], "phone": "(732) 246-2177", "latitude": 40.49894, "longitude": -74.447942, "minFreeDelivery": 0.0, "taxRate": 0.0688, "acceptsCash": true, "acceptsCard": true, "offersPickup": true, "offersDelivery": true, "isTestRestaurant": false, "minWaitTime": 45, "maxWaitTime": 60, "open": true, "url": "https://eatstreet.com/new-brunswick-nj/restaurants/r-u-hungry", "hours": {"Monday": ["12:00 PM - 4:00 AM"], "Saturday": ["12:00 PM - 4:00 AM"], "Sunday": ["12:00 PM - 4:00 AM"], "Wednesday": ["12:00 PM - 4:00 AM"], "Tuesday": ["12:00 PM - 4:00 AM"], "Friday": ["12:00 PM - 4:00 AM"], "Thursday": ["12:00 PM - 4:00 AM"]}, "timezone": "US/Eastern"}, {"apiKey": "1b3e7d280d7bcddd884225aec137a02a8c5630291bb7a191", "deliveryMin": 15.0, "deliveryPrice": 3.0, "logoUrl": "https://eatstreet-static.s3.amazonaws.com/assets/images/restaurant_logos/ru-grill-and-pizza-10285_1416324782526.png", "name": "R.U. Grill & Pizza", "streetAddress": "142 Easton Ave", "city": "New Brunswick", "state": "NJ", "zip": "08901", "foodTypes": ["Subs & Sandwiches", "Burgers", "Pizza", "Healthy Food", "Chicken", "Breakfast"], "phone": "(732) 828-1128", "latitude": 40.499514, "longitude": -74.453214, "minFreeDelivery": 0.0, "taxRate": 0.0688, "acceptsCash": true, "acceptsCard": true, "offersPickup": true, "offersDelivery": true, "isTestRestaurant": false, "minWaitTime": 45, "maxWaitTime": 60, "open": true, "url": "https://eatstreet.com/new-brunswick-nj/restaurants/ru-grill-and-pizza", "hours": {"Monday": ["4:00 PM - 3:00 AM"], "Saturday": ["4:00 PM - 3:00 AM"], "Sunday": ["4:00 PM - 2:00 AM"], "Wednesday": ["4:00 PM - 3:00 AM"], "Tuesday": ["4:00 PM - 3:00 AM"], "Friday": ["4:00 PM - 3:00 AM"], "Thursday": ["4:00 PM - 3:00 AM"]}, "timezone": "US/Eastern"}, {"apiKey": "1b3e7d280d7bcddd459c89af9c6802053fe34276a0888440", "deliveryMin": 10.0, "logoUrl": "https://eatstreet-static.s3.amazonaws.com/assets/images/restaurant_logos/ramen-shoppu-40769_1497041194147.png", "name": "Ramen Shoppu", "streetAddress": "518 Hamilton St", "city": "Somerset", "state": "NJ", "zip": "08873", "foodTypes": ["Asian", "Seafood", "Poke", "Ramen", "Asian Fusion"], "phone": "(732) 630-1111", "latitude": 40.494422, "longitude": -74.464526, "minFreeDelivery": 0.0, "taxRate": 0.0687, "acceptsCash": true, "acceptsCard": true, "offersPickup": true, "offersDelivery": true, "isTestRestaurant": false, "minWaitTime": 45, "maxWaitTime": 60, "open": false, "url": "https://eatstreet.com/new-brunswick-nj/restaurants/ramen-shoppu", "hours": {"Monday": ["11:00 AM - 10:00 PM"], "Saturday": ["11:00 AM - 10:00 PM"], "Sunday": ["11:00 AM - 10:00 PM"], "Wednesday": ["11:00 AM - 10:00 PM"], "Tuesday": ["11:00 AM - 10:00 PM"], "Friday": ["11:00 AM - 10:00 PM"], "Thursday": ["11:00 AM - 10:00 PM"]}, "timezone": "US/Eastern"}, {"apiKey": "1b3e7d280d7bcdddf15b4f2e73e7618047acc55090bf2dd4", "deliveryMin": 15.0, "deliveryPrice": 2.0, "logoUrl": "https://eatstreet-static.s3.amazonaws.com/assets/images/restaurant_logos/rays-bistro--32136_1468857481720.png", "name": "Ray's Bistro", "streetAddress": "440 W. Union Ave.", "city": "Bound Brook", "state": "NJ", "zip": "08805", "foodTypes": ["Pizza", "Italian Food", "Italian"], "phone": "(848) 248-9900", "latitude": 40.58502, "longitude": -74.508969, "minFreeDelivery": 0.0, "taxRate": 0.0688, "acceptsCash": true, "acceptsCard": true, "offersPickup": true, "offersDelivery": true, "isTestRestaurant": false, "minWaitTime": 45, "maxWaitTime": 60, "open": false, "url": "https://eatstreet.com/new-brunswick-nj/restaurants/rays-pizza-dunellen", "hours": {"Monday": ["12:00 PM - 7:30 PM"], "Saturday": ["12:00 PM - 7:30 PM"], "Sunday": ["12:00 PM - 7:30 PM"], "Wednesday": ["12:00 PM - 7:30 PM"], "Tuesday": ["12:00 PM - 7:30 PM"], "Friday": ["12:00 PM - 7:30 PM"], "Thursday": ["12:00 PM - 7:30 PM"]}, "timezone": "US/Eastern"}, {"apiKey": "1b3e7d280d7bcddd459c89af9c68020526f344326f745793", "deliveryMin": 16.5, "logoUrl": "https://eatstreet-static.s3.amazonaws.com/assets/images/restaurant_logos/sakura-sushi-42112_1516962362781.png", "name": "Sakura Sushi", "streetAddress": "204 Easton Ave", "city": "New Brunswick", "state": "NJ", "zip": "08901", "foodTypes": ["Sushi", "Seafood", "Asian", "Japanese", "Chinese", "Sushi Bars"], "phone": "(732) 640-2233", "latitude": 40.500442, "longitude": -74.455997, "minFreeDelivery": 0.0, "taxRate": 0.0663, "acceptsCash": true, "acceptsCard": true, "offersPickup": true, "offersDelivery": true, "isTestRestaurant": false, "minWaitTime": 45, "maxWaitTime": 60, "open": false, "url": "https://eatstreet.com/new-brunswick-nj/restaurants/sakura-sushi-new-brunswick", "hours": {"Monday": ["12:00 PM - 10:30 PM"], "Saturday": ["12:00 PM - 10:30 PM"], "Sunday": ["3:45 PM - 9:45 PM"], "Wednesday": ["12:00 PM - 10:30 PM"], "Tuesday": ["12:00 PM - 10:30 PM"], "Friday": ["12:00 PM - 10:30 PM"], "Thursday": ["12:00 PM - 10:30 PM"]}, "timezone": "US/Eastern"}, {"apiKey": "1b3e7d280d7bcdddf15b4f2e73e76180e808835748294149", "deliveryMin": 10.0, "logoUrl": "https://eatstreet-static.s3.amazonaws.com/assets/images/restaurant_logos/sanctuary-35924_1494956678836.png", "name": "Sanctuary", "streetAddress": "135 Easton Ave.", "city": "New Brunswick", "state": "NJ", "zip": "08901", "foodTypes": ["Subs & Sandwiches", "Burgers", "Ice Cream & Frozen Yogurt", "Dessert", "Fast Food", "Desserts"], "phone": "(732) 846-3393", "latitude": 40.499655, "longitude": -74.453073, "minFreeDelivery": 0.0, "taxRate": 0.0688, "acceptsCash": false, "acceptsCard": true, "offersPickup": true, "offersDelivery": true, "isTestRestaurant": false, "minWaitTime": 35, "maxWaitTime": 50, "open": true, "url": "https://eatstreet.com/new-brunswick-nj/restaurants/sanctuary-new-brunswick", "hours": {"Saturday": ["11:00 AM - 1:00 AM"], "Sunday": ["11:00 AM - 1:00 AM"], "Wednesday": ["11:00 AM - 1:00 AM"], "Tuesday": ["11:00 AM - 1:00 AM"], "Friday": ["11:00 AM - 1:00 AM"], "Thursday": ["11:00 AM - 1:00 AM"]}, "timezone": "US/Eastern"}, {"apiKey": "1b3e7d280d7bcdddf15b4f2e73e761807c1bf0ccd22972fb", "deliveryMin": 18.0, "deliveryPrice": 8.0, "logoUrl": "https://eatstreet-static.s3.amazonaws.com/assets/images/restaurant_logos/shivaji-indian-express-31471_1435226819746.png", "name": "Shivaji Indian Express", "streetAddress": "561 US Highway 1 South Unit A-7", "city": "Edison", "state": "NJ", "zip": "08817", "foodTypes": ["Indian"], "phone": "(732) 543-0171", "latitude": 40.507036, "longitude": -74.396004, "minFreeDelivery": 0.0, "taxRate": 0.0688, "acceptsCash": true, "acceptsCard": true, "offersPickup": true, "offersDelivery": true, "isTestRestaurant": false, "minWaitTime": 45, "maxWaitTime": 60, "open": false, "url": "https://eatstreet.com/new-brunswick-nj/restaurants/shivaji-indian-express", "hours": {"Monday": ["11:30 AM - 11:30 PM"], "Saturday": ["11:30 AM - 11:30 PM"], "Sunday": ["11:30 AM - 11:30 PM"], "Wednesday": ["11:30 AM - 11:30 PM"], "Tuesday": ["11:30 AM - 11:30 PM"], "Friday": ["11:30 AM - 11:30 PM"], "Thursday": ["11:30 AM - 11:30 PM"]}, "timezone": "US/Eastern"}, {"apiKey": "1b3e7d280d7bcdddf15b4f2e73e761805286e21eea5b6a5b", "logoUrl": "https://eatstreet-static.s3.amazonaws.com/assets/images/restaurant_logos/shogun-22-39593_1485391290440.png", "name": "Shogun 22", "streetAddress": "166 US Highway 22", "city": "Green Brook", "state": "NJ", "zip": "8812", "foodTypes": ["Japanese", "Sushi Bars", "Asian Fusion"], "phone": "(732) 968-3330", "latitude": 40.6029748, "longitude": -74.4798989, "minFreeDelivery": 0.0, "taxRate": 0.07, "acceptsCash": true, "acceptsCard": true, "offersPickup": true, "offersDelivery": false, "isTestRestaurant": false, "minWaitTime": 45, "maxWaitTime": 60, "open": false, "url": "https://eatstreet.com/new-brunswick-nj/restaurants/shogun-22", "hours": {"Monday": ["11:30 AM - 2:30 PM", "4:30 PM - 10:00 PM"], "Saturday": ["4:30 PM - 11:00 PM"], "Sunday": ["4:00 PM - 9:30 PM"], "Wednesday": ["11:30 AM - 2:30 PM", "4:30 PM - 10:00 PM"], "Tuesday": ["11:30 AM - 2:30 PM", "4:30 PM - 10:00 PM"], "Friday": ["11:30 AM - 2:30 PM", "4:30 PM - 11:00 PM"], "Thursday": ["11:30 AM - 2:30 PM", "4:30 PM - 10:00 PM"]}, "timezone": "US/Eastern"}, {"apiKey": "1b3e7d280d7bcddd459c89af9c680205bd5e62fa20b0f1ce", "deliveryMin": 15.0, "logoUrl": "https://eatstreet-static.s3.amazonaws.com/assets/images/restaurant_logos/subway-42353_1519641094867.png", "name": "Subway", "streetAddress": "103 Easton Ave", "city": "New Brunswick", "state": "NJ", "zip": "08901", "foodTypes": ["Sandwiches", "Fast Food"], "phone": "(732) 246-5900", "latitude": 40.499065, "longitude": -74.451489, "minFreeDelivery": 0.0, "taxRate": 0.0688, "acceptsCash": true, "acceptsCard": true, "offersPickup": true, "offersDelivery": true, "isTestRestaurant": false, "minWaitTime": 45, "maxWaitTime": 60, "open": false, "url": "https://eatstreet.com/new-brunswick-nj/restaurants/subway-new-brunswick", "hours": {"Monday": ["11:00 AM - 11:00 PM"], "Saturday": ["11:00 AM - 11:00 PM"], "Sunday": ["11:00 AM - 10:00 PM"], "Wednesday": ["11:00 AM - 11:00 PM"], "Tuesday": ["11:00 AM - 11:00 PM"], "Friday": ["11:00 AM - 11:00 PM"], "Thursday": ["11:00 AM - 11:00 PM"]}, "timezone": "US/Eastern"}, {"apiKey": "1b3e7d280d7bcddd144247b91fbcb2f3f5eb01cb508442a8", "deliveryMin": 12.0, "logoUrl": "https://eatstreet-static.s3.amazonaws.com/assets/images/restaurant_logos/sushi-room-japanese-cuisine-29705_1426021905536.png", "name": "Sushi Room Japanese Cuisine", "streetAddress": "12 Easton Ave", "city": "New Brunswick", "state": "NJ", "zip": "08901", "foodTypes": ["Sushi", "Sushi Bars", "Asian Fusion", "American (Traditional)"], "phone": "(732) 640-0407", "latitude": 40.496928, "longitude": -74.447404, "minFreeDelivery": 0.0, "taxRate": 0.0688, "acceptsCash": true, "acceptsCard": true, "offersPickup": true, "offersDelivery": true, "isTestRestaurant": false, "minWaitTime": 45, "maxWaitTime": 60, "open": false, "url": "https://eatstreet.com/new-brunswick-nj/restaurants/sushi-room-japanese-cuisine", "hours": {"Monday": ["11:30 AM - 9:45 PM"], "Saturday": ["11:30 AM - 11:45 PM"], "Sunday": ["1:00 PM - 9:45 PM"], "Wednesday": ["11:30 AM - 9:45 PM"], "Tuesday": ["11:30 AM - 9:45 PM"], "Friday": ["11:30 AM - 11:45 PM"], "Thursday": ["11:30 AM - 9:45 PM"]}, "timezone": "US/Eastern"}, {"apiKey": "1b3e7d280d7bcdddf15b4f2e73e76180e313fe89bf8b6ace", "deliveryMin": 30.0, "deliveryPrice": 5.0, "logoUrl": "https://eatstreet-static.s3.amazonaws.com/assets/images/restaurant_logos/thai-lanna-37399_1469483234182.png", "name": "Thai Lanna", "streetAddress": "1135 Easton Ave.", "city": "Somerset", "state": "NJ", "zip": "08873", "foodTypes": ["Thai Food", "Thai"], "phone": "(732) 220-0202", "latitude": 40.5180693, "longitude": -74.4892674, "minFreeDelivery": 0.0, "taxRate": 0.0688, "acceptsCash": true, "acceptsCard": true, "offersPickup": true, "offersDelivery": true, "isTestRestaurant": false, "minWaitTime": 45, "maxWaitTime": 60, "open": false, "url": "https://eatstreet.com/new-brunswick-nj/restaurants/thai-lanna", "hours": {"Monday": ["11:00 AM - 3:00 PM", "4:30 PM - 10:00 PM"], "Saturday": ["4:30 AM - 10:00 PM"], "Sunday": ["1:00 PM - 9:00 PM"], "Wednesday": ["11:00 AM - 3:00 PM", "4:30 PM - 10:00 PM"], "Tuesday": ["11:00 AM - 3:00 PM", "4:30 PM - 10:00 PM"], "Friday": ["11:00 AM - 3:00 PM", "4:30 PM - 10:00 PM"], "Thursday": ["11:00 AM - 3:00 PM", "4:30 PM - 10:00 PM"]}, "timezone": "US/Eastern"}, {"apiKey": "1b3e7d280d7bcddd65357bbaef9033f42ac24af0e1a83141", "deliveryMin": 10.0, "logoUrl": "https://eatstreet-static.s3.amazonaws.com/assets/images/restaurant_logos/the-original-pizza-city-9807_1396300648024.png", "name": "The Original Pizza City", "streetAddress": "145 Easton Ave", "city": "New Brunswick", "state": "NJ", "zip": "08901", "foodTypes": ["Subs & Sandwiches", "Burgers", "Pizza", "Healthy Food", "Chicken", "Breakfast", "Greek Food", "Wings", "Sandwiches"], "phone": "(732) 937-9597", "latitude": 40.499674, "longitude": -74.453539, "minFreeDelivery": 0.0, "taxRate": 0.0688, "acceptsCash": true, "acceptsCard": true, "offersPickup": true, "offersDelivery": true, "isTestRestaurant": false, "minWaitTime": 35, "maxWaitTime": 50, "open": true, "url": "https://eatstreet.com/new-brunswick-nj/restaurants/the-original-pizza-city-new-brunswick", "hours": {"Monday": ["11:00 AM - 2:30 AM"], "Saturday": ["11:00 AM - 2:30 AM"], "Sunday": ["12:00 PM - 11:30 PM"], "Wednesday": ["11:00 AM - 2:30 AM"], "Tuesday": ["11:00 AM - 2:30 AM"], "Friday": ["11:00 AM - 2:30 AM"], "Thursday": ["11:00 AM - 2:30 AM"]}, "timezone": "US/Eastern"}, {"apiKey": "1b3e7d280d7bcddd459c89af9c6802059b586a3ead82330c", "deliveryMin": 15.0, "logoUrl": "https://eatstreet-static.s3.amazonaws.com/assets/images/restaurant_logos/thomas-sweet-ice-cream-and-chocolates-40117_1488412960065.png", "name": "Thomas Sweet Ice Cream", "streetAddress": "55 Easton Ave", "city": "New Brunswick", "state": "NJ", "zip": "08901", "foodTypes": ["Ice Cream", "Milkshakes", "Dessert", "Candy Stores", "Ice Cream & Frozen Yogurt", "Desserts"], "phone": "(732) 828-3855", "latitude": 40.4981602, "longitude": -74.4492131, "minFreeDelivery": 0.0, "taxRate": 0.07, "acceptsCash": true, "acceptsCard": true, "offersPickup": true, "offersDelivery": true, "isTestRestaurant": false, "minWaitTime": 35, "maxWaitTime": 50, "open": false, "url": "https://eatstreet.com/new-brunswick-nj/restaurants/thomas-sweet-ice-cream-and-chocolates", "hours": {"Monday": ["12:00 PM - 10:30 PM"], "Saturday": ["12:00 PM - 11:30 PM"], "Sunday": ["12:00 PM - 10:30 PM"], "Wednesday": ["12:00 PM - 10:30 PM"], "Tuesday": ["12:00 PM - 10:30 PM"], "Friday": ["12:00 PM - 11:30 PM"], "Thursday": ["12:00 PM - 10:30 PM"]}, "timezone": "US/Eastern"}, {"apiKey": "1b3e7d280d7bcdddf15b4f2e73e76180b8ca9387fe77fac5", "deliveryMin": 15.0, "logoUrl": "https://eatstreet-static.s3.amazonaws.com/assets/images/restaurant_logos/veganized-32124_1438651337205.png", "name": "Veganized", "streetAddress": "9 Spring St", "city": "New Brunswick", "state": "NJ", "zip": "08901", "foodTypes": ["Vegan", "Vegetarian", "Healthy Food", "Subs & Sandwiches"], "phone": "(732) 342-7412", "latitude": 40.49561, "longitude": -74.44534, "minFreeDelivery": 0.0, "taxRate": 0.0688, "acceptsCash": true, "acceptsCard": true, "offersPickup": true, "offersDelivery": true, "isTestRestaurant": false, "minWaitTime": 35, "maxWaitTime": 50, "open": false, "url": "https://eatstreet.com/new-brunswick-nj/restaurants/veganized-new-brunswick", "hours": {"Monday": ["11:00 AM - 9:30 PM"], "Saturday": ["11:00 AM - 9:30 PM"], "Sunday": ["12:00 PM - 9:30 PM"], "Wednesday": ["11:00 AM - 9:30 PM"], "Tuesday": ["11:00 AM - 9:30 PM"], "Friday": ["11:00 AM - 9:30 PM"], "Thursday": ["11:00 AM - 9:30 PM"]}, "timezone": "US/Eastern"}, {"apiKey": "1b3e7d280d7bcdddf15b4f2e73e761809b23e5f9c9e5e7b4", "deliveryMin": 10.0, "deliveryPrice": 3.0, "logoUrl": "https://eatstreet-static.s3.amazonaws.com/assets/images/restaurant_logos/wasabi-n-wok-35952_1458077878576.png", "name": "Wasabi N' Wok", "streetAddress": "89 Main Street", "city": "South Bound Brook", "state": "NJ", "zip": "08880", "foodTypes": ["Japanese Food", "Asian Food", "Sushi", "Chinese Food", "Japanese", "Chinese", "Malaysian", "Thai"], "phone": "(732) 805-3998", "latitude": 40.553901, "longitude": -74.524616, "minFreeDelivery": 0.0, "taxRate": 0.0688, "acceptsCash": true, "acceptsCard": true, "offersPickup": true, "offersDelivery": true, "isTestRestaurant": false, "minWaitTime": 45, "maxWaitTime": 60, "open": false, "url": "https://eatstreet.com/new-brunswick-nj/restaurants/wasabi-n-wok", "hours": {"Monday": ["10:30 AM - 10:15 PM"], "Saturday": ["10:30 AM - 10:45 PM"], "Sunday": ["11:00 AM - 9:45 PM"], "Wednesday": ["10:30 AM - 10:15 PM"], "Tuesday": ["10:30 AM - 10:15 PM"], "Friday": ["10:30 AM - 10:45 PM"], "Thursday": ["10:30 AM - 10:15 PM"]}, "timezone": "US/Eastern"}, {"apiKey": "1b3e7d280d7bcddd459c89af9c6802054d6256f6be965633", "deliveryMin": 12.0, "logoUrl": "https://eatstreet-static.s3.amazonaws.com/assets/images/restaurant_logos/wingstop-41384_1505748377946.png", "name": "WingStop", "streetAddress": "396 George St", "city": "New Brunswick", "state": "NJ", "zip": "08901", "foodTypes": ["Wings", "Chicken Wings"], "phone": "(732) 543-2200", "latitude": 40.496189, "longitude": -74.44439, "minFreeDelivery": 0.0, "taxRate": 0.0688, "acceptsCash": true, "acceptsCard": true, "offersPickup": true, "offersDelivery": true, "isTestRestaurant": false, "minWaitTime": 35, "maxWaitTime": 55, "open": false, "url": "https://eatstreet.com/new-brunswick-nj/restaurants/wingstop-new-brunswick", "hours": {"Monday": ["11:30 AM - 10:30 PM"], "Saturday": ["11:30 AM - 10:30 PM"], "Sunday": ["11:30 AM - 10:30 PM"], "Wednesday": ["11:30 AM - 10:30 PM"], "Tuesday": ["11:30 AM - 10:30 PM"], "Friday": ["11:30 AM - 10:30 PM"], "Thursday": ["11:30 AM - 10:30 PM"]}, "timezone": "US/Eastern"}, {"apiKey": "1b3e7d280d7bcddd65357bbaef9033f4096a74fc05977d1d", "deliveryMin": 10.0, "logoUrl": "https://eatstreet-static.s3.amazonaws.com/assets/images/restaurant_logos/wings-over-rutgers-9761_1416246624121.png", "name": "Wings Over Rutgers", "streetAddress": "152 Easton Ave", "city": "New Brunswick", "state": "NJ", "zip": "08901", "foodTypes": ["Wings", "Chicken", "Salad", "Sandwich", "Chicken Wings", "Sandwiches"], "phone": "(732) 543-1111", "latitude": 40.499645, "longitude": -74.453543, "minFreeDelivery": 0.0, "taxRate": 0.0688, "acceptsCash": true, "acceptsCard": true, "offersPickup": true, "offersDelivery": true, "isTestRestaurant": false, "minWaitTime": 45, "maxWaitTime": 60, "open": true, "url": "https://eatstreet.com/new-brunswick-nj/restaurants/wings-over-rutgers", "hours": {"Monday": ["4:00 PM - 12:45 AM"], "Saturday": ["11:00 AM - 2:45 AM"], "Sunday": ["12:00 PM - 12:45 AM"], "Wednesday": ["4:00 PM - 12:45 AM"], "Tuesday": ["4:00 PM - 12:45 AM"], "Friday": ["11:00 AM - 2:45 AM"], "Thursday": ["4:00 PM - 12:45 AM"]}, "timezone": "US/Eastern"}, {"apiKey": "1b3e7d280d7bcddd459c89af9c680205e6cbcfe11b6f8942", "deliveryMin": 15.0, "logoUrl": "https://eatstreet-static.s3.amazonaws.com/assets/images/restaurant_logos/zookini-pizzeria-and-41664_1510075186684.png", "name": "Zookini Pizzeria and Restaurant", "streetAddress": "60 Sicard St", "city": "New Brunswick", "state": "NJ", "zip": "08901", "foodTypes": ["Pizza", "Sandwiches", "Mediterranean", "Italian"], "phone": "(732) 545-6671", "latitude": 40.502811, "longitude": -74.454388, "minFreeDelivery": 0.0, "taxRate": 0.0688, "acceptsCash": true, "acceptsCard": true, "offersPickup": true, "offersDelivery": true, "isTestRestaurant": false, "minWaitTime": 45, "maxWaitTime": 60, "open": true, "url": "https://eatstreet.com/new-brunswick-nj/restaurants/zookini-pizzeria-and-restaurant", "hours": {"Monday": ["11:30 AM - 2:00 AM"], "Saturday": ["11:30 AM - 2:00 AM"], "Sunday": ["12:00 PM - 12:00 AM"], "Wednesday": ["11:30 AM - 2:00 AM"], "Tuesday": ["11:30 AM - 2:00 AM"], "Friday": ["11:30 AM - 2:00 AM"], "Thursday": ["11:30 AM - 2:00 AM"]}, "timezone": "US/Eastern"}]}